[
    {
        "address": "108 Long Swamp Road, Armidale, NSW 2350",
        "latitude": -30.5286751,
        "longitude": 151.6790181,
        "name": "Armidale Waste Management Facility",
        "phone": "(02) 6772 7090",
        "state": "NSW",
        "suburb": "Armidale",
        "type": "Plastics Recovery Facility",
        "website": "https://www.armidaleregional.nsw.gov.au/environment/waste-and-recycling/waste-facilities"
    },
    {
        "address": "Corner Moore Street & Baker Street, Banksmeadow, NSW 2019",
        "latitude": -33.94465067,
        "longitude": 151.2160228,
        "name": "Visypak",
        "phone": "1300 368 479",
        "state": "NSW",
        "suburb": "Banksmeadow",
        "type": "Plastics Reprocessing Facility",
        "website": "https://www.visy.com.au/locate/"
    },
    {
        "address": "87-93 Lisbon Street, Fairfield East, NSW 2165",
        "latitude": -33.8715612,
        "longitude": 150.9795075,
        "name": "Doyle Bros Mrf",
        "phone": "(02) 9999 2111",
        "state": "NSW",
        "suburb": "Fairfield East",
        "type": "Plastics Recovery Facility",
        "website": "http://www.doylebros.com.au/"
    },
    {
        "address": "2- 30 Blackburn St, Kilburn, SA 5084",
        "latitude": -34.8534864,
        "longitude": 138.5851162,
        "name": "Plastics Granulating",
        "phone": "(03) 9553 0385",
        "state": "SA",
        "suburb": "Kilburn",
        "type": "Plastics Reprocessing Facility",
        "website": "https://plasticcenter.com.au/"
    },
    {
        "address": "15 Burma Rd, Pooraka, SA 5095",
        "latitude": -34.8336515,
        "longitude": 138.609876,
        "name": "Bill Caire Cases",
        "phone": "(08) 8262 6248",
        "state": "SA",
        "suburb": "Pooraka",
        "type": "Plastics Reprocessing Facility",
        "website": "No Website Available"
    },
    {
        "address": "185 Frankston-Dandenong Road, Dandenong South, VIC 3175",
        "latitude": -38.0177841,
        "longitude": 145.2157337,
        "name": "Martogg Lcm Victoria",
        "phone": "(03) 9791 5633",
        "state": "VIC",
        "suburb": "Dandenong South",
        "type": "Plastics Reprocessing Facility",
        "website": "http://www.martogg.com.au/"
    },
    {
        "address": "280 Kyabram Road, Wyuna, VIC 3620",
        "latitude": -36.1851129,
        "longitude": 145.062016,
        "name": "Rpm Pipe",
        "phone": "1300 890 979",
        "state": "VIC",
        "suburb": "Wyuna",
        "type": "Plastics Reprocessing Facility",
        "website": "https://rpmpipes.com.au/"
    },
    {
        "address": "100 Point Henry Road, Moolap, VIC 3224",
        "latitude": -38.1404871,
        "longitude": 144.4212733,
        "name": "Gt Recycling",
        "phone": "(03) 5248 0473",
        "state": "VIC",
        "suburb": "Moolap",
        "type": "Plastics Recovery Facility",
        "website": "http://www.gtrecycling.com.au/"
    },
    {
        "address": "4 Neerim Crescent, Mount Rowan, VIC 3352",
        "latitude": -37.51599197,
        "longitude": 143.8045876,
        "name": "Ballarat Regional Industries",
        "phone": "(03) 5342 6500",
        "state": "VIC",
        "suburb": "Mount Rowan",
        "type": "Plastics Reprocessing Facility",
        "website": "http://bri.org.au/"
    },
    {
        "address": "Hunt Road , South Tammin, WA 6409",
        "latitude": -31.6553248,
        "longitude": 117.490812,
        "name": "Tammin Refuse Facility",
        "phone": "No Phone Number Available",
        "state": "WA",
        "suburb": "South Tammin",
        "type": "Plastics Recovery Facility",
        "website": "No Website Available"
    },
    {
        "address": "15 Peachey Road, Gepps Cross, SA 5094",
        "latitude": -34.70302785,
        "longitude": 138.6630716,
        "name": "Foamex Sa",
        "phone": "(03) 9302 1022",
        "state": "SA",
        "suburb": "Gepps Cross",
        "type": "Plastics Reprocessing Facility",
        "website": "https://www.foamex.com.au/"
    },
    {
        "address": "21 Union Road, Auburn, NSW 2144",
        "latitude": -33.8573056,
        "longitude": 151.0286011,
        "name": "Plastic Forests Pty Ltd",
        "phone": "(02) 6048 0532",
        "state": "NSW",
        "suburb": "Auburn",
        "type": "Plastics Recovery Facility",
        "website": "http://plasticforests.com.au/"
    },
    {
        "address": "21 Union Road, Auburn, NSW 2144",
        "latitude": -33.8573056,
        "longitude": 151.0286011,
        "name": "Plastic Forests Pty Ltd",
        "phone": "(02) 6048 0532",
        "state": "NSW",
        "suburb": "Auburn",
        "type": "Plastics Reprocessing Facility",
        "website": "http://plasticforests.com.au/"
    },
    {
        "address": "60 Echuca Street, Moama, NSW 2731",
        "latitude": -36.1078195,
        "longitude": 144.7626346,
        "name": "The Green Pipe",
        "phone": "03 5480 7060",
        "state": "NSW",
        "suburb": "Moama",
        "type": "Plastics Recovery Facility",
        "website": "https://thegreenpipe.com.au/"
    },
    {
        "address": "403 Newbridge Road, Moorebank, NSW 2170",
        "latitude": -33.927234,
        "longitude": 150.9288898,
        "name": "Mpe Plastic Extrusion",
        "phone": "(04) 3122 1405",
        "state": "NSW",
        "suburb": "Moorebank",
        "type": "Plastics Reprocessing Facility",
        "website": "http://www.meaps.com.au/"
    },
    {
        "address": "30-32 Powers Road, Seven Hills, NSW 2147",
        "latitude": -33.7744889,
        "longitude": 150.9490352,
        "name": "Astron Sustainability",
        "phone": "(03) 9559 4270",
        "state": "NSW",
        "suburb": "Seven Hills",
        "type": "Plastics Reprocessing Facility",
        "website": "http://astronsustainability.com/"
    },
    {
        "address": "51 Glenwood Drive, Thornton, NSW 2322",
        "latitude": -32.7899019,
        "longitude": 151.6355861,
        "name": "Hunter Pods Pty Ltd",
        "phone": "(02) 4966 3959",
        "state": "NSW",
        "suburb": "Thornton",
        "type": "Plastics Reprocessing Facility",
        "website": "http://www.hunterpods.com.au/"
    },
    {
        "address": "32-40 Derby Street, Silverwater, NSW 2128",
        "latitude": -33.8345733,
        "longitude": 151.0404558,
        "name": "Rbm Plastics",
        "phone": "(02) 9748 2638",
        "state": "NSW",
        "suburb": "Silverwater",
        "type": "Plastics Reprocessing Facility",
        "website": "http://rbmplastics.com.au/"
    },
    {
        "address": "33-41 Airds Road, Minto, NSW 2566",
        "latitude": -34.0455122,
        "longitude": 150.8318224,
        "name": "Martogg Lcm Nsw",
        "phone": "(02) 9603 2011",
        "state": "NSW",
        "suburb": "Minto",
        "type": "Plastics Reprocessing Facility",
        "website": "http://www.martogg.com.au/"
    },
    {
        "address": "11 Bowlan Street, Moama, NSW 2731",
        "latitude": -36.0781999,
        "longitude": 144.7473931,
        "name": "Newtecpoly",
        "phone": "1300 639 832",
        "state": "NSW",
        "suburb": "Moama",
        "type": "Plastics Recovery Facility",
        "website": "No Website Available"
    },
    {
        "address": "1 Eucalyptus Place, Eastern Creek, NSW 2766",
        "latitude": -33.8019813,
        "longitude": 150.8353176,
        "name": "Qls Logistics",
        "phone": "(03) 9706 5966",
        "state": "NSW",
        "suburb": "Eastern Creek",
        "type": "Plastics Reprocessing Facility",
        "website": "http://www.qlslogistics.com.au/"
    },
    {
        "address": "52 Formation Street, Wacol, QLD 4076",
        "latitude": -27.6042572,
        "longitude": 152.9249594,
        "name": "Astron Sustainability",
        "phone": "(03) 9559 4270",
        "state": "QLD",
        "suburb": "Wacol",
        "type": "Plastics Reprocessing Facility",
        "website": "http://astronsustainability.com/"
    },
    {
        "address": "94 Anton Road, Hemmant, QLD 4174",
        "latitude": -27.432048,
        "longitude": 153.1317908,
        "name": "Cleanaway Hemmant Recycling",
        "phone": "(07) 3175 4300",
        "state": "QLD",
        "suburb": "Hemmant",
        "type": "Plastics Recovery Facility",
        "website": "https://www.cleanaway.com.au/contact-us/hemmant/?utm_source=GMB&utm_medium=organic&utm_campaign=GBP_Hemmant"
    },
    {
        "address": "5 Priority Street, Wacol, QLD 4076",
        "latitude": -27.5948213,
        "longitude": 152.9328121,
        "name": "Resitech Wacol",
        "phone": "(07) 3879 4409",
        "state": "QLD",
        "suburb": "Wacol",
        "type": "Plastics Reprocessing Facility",
        "website": "http://www.rtigroup.com.au/"
    },
    {
        "address": "500 Churchill Road, Kilburn, SA 5084",
        "latitude": -34.8495881,
        "longitude": 138.5824748,
        "name": "Advanced Plastics Recycling",
        "phone": "1800 277 800",
        "state": "SA",
        "suburb": "Kilburn",
        "type": "Plastics Reprocessing Facility",
        "website": "https://www.aprplastics.com.au/"
    },
    {
        "address": "30 Cromwell Road, Kilburn, SA 5084",
        "latitude": -34.8542805,
        "longitude": 138.5871181,
        "name": "Recycling Plastics Australia",
        "phone": "(03) 9770 8390",
        "state": "SA",
        "suburb": "Kilburn",
        "type": "Plastics Reprocessing Facility",
        "website": "https://replas.com.au/"
    },
    {
        "address": "114 Victoria Street, George Town, TAS 7253",
        "latitude": -41.1120031,
        "longitude": 146.8326926,
        "name": "Environex",
        "phone": "(08) 9302 4000",
        "state": "TAS",
        "suburb": "George Town",
        "type": "Plastics Reprocessing Facility",
        "website": "https://environex.net.au/"
    },
    {
        "address": "46 Radford Road, Reservoir, VIC 3073",
        "latitude": -37.7007279,
        "longitude": 144.985557,
        "name": "Emmans Granulators",
        "phone": "(03) 9462 1644",
        "state": "VIC",
        "suburb": "Reservoir",
        "type": "Plastics Reprocessing Facility",
        "website": "http://www.emmans.com.au/home.htm"
    },
    {
        "address": "235 Hume Highway, Somerton, VIC 3062",
        "latitude": -37.6242597,
        "longitude": 144.9477257,
        "name": "Advanced Circular Polymers",
        "phone": "No Phone Number Available",
        "state": "VIC",
        "suburb": "Somerton",
        "type": "Plastics Recovery Facility",
        "website": "No Website Available"
    },
    {
        "address": "21 East Court, Lilydale, VIC 3140",
        "latitude": -37.7494692,
        "longitude": 145.3509893,
        "name": "Repeat Plastics Australia",
        "phone": "(03) 9770 8390",
        "state": "VIC",
        "suburb": "Lilydale",
        "type": "Plastics Reprocessing Facility",
        "website": "https://replas.com.au/"
    },
    {
        "address": "31-33 Gatwick Road, Bayswater North, VIC 3153",
        "latitude": -37.8181451,
        "longitude": 145.2973737,
        "name": "Foamex Vic",
        "phone": "(03) 8739 5800",
        "state": "VIC",
        "suburb": "Bayswater North",
        "type": "Plastics Reprocessing Facility",
        "website": "https://www.foamex.com.au/?utm_medium=organic&utm_source=local&utm_campaign=gmb&utm_content=website"
    },
    {
        "address": "12-20 Moon Street, Moolap, VIC 3224",
        "latitude": -38.164628,
        "longitude": 144.4138374,
        "name": "Cryogrind",
        "phone": "(03) 9794 6608",
        "state": "VIC",
        "suburb": "Moolap",
        "type": "Plastics Reprocessing Facility",
        "website": "http://cryogrind.com.au/"
    },
    {
        "address": "103 Bernard Street, Cheltenham, VIC 3192",
        "latitude": -37.9540916,
        "longitude": 145.0742332,
        "name": "Astron Sustainability",
        "phone": "(03) 9559 4270",
        "state": "VIC",
        "suburb": "Cheltenham",
        "type": "Plastics Reprocessing Facility",
        "website": "http://astronsustainability.com/"
    },
    {
        "address": "21 Little Boundary Road, Laverton North, VIC 3026",
        "latitude": -37.8238232,
        "longitude": 144.8239036,
        "name": "Pcp Global Recycling",
        "phone": "(03) 9318 9190",
        "state": "VIC",
        "suburb": "Laverton North",
        "type": "Plastics Reprocessing Facility",
        "website": "No Website Available"
    },
    {
        "address": "8 Hawthorn Avenue, Sunshine North, VIC 3020",
        "latitude": -37.7620053,
        "longitude": 144.8368392,
        "name": "Styro Polymers",
        "phone": "(03) 9794 8320",
        "state": "VIC",
        "suburb": "Sunshine North",
        "type": "Plastics Reprocessing Facility",
        "website": "https://www.polyfoam.com.au/"
    },
    {
        "address": "49 Jesica Road, Campbellfield, VIC 3061",
        "latitude": -37.6584831,
        "longitude": 144.956355,
        "name": "Global Industrial Group",
        "phone": "(03) 9338 8000",
        "state": "VIC",
        "suburb": "Campbellfield",
        "type": "Plastics Reprocessing Facility",
        "website": "https://www.globalind.com.au/"
    },
    {
        "address": "2-4 Mephan Street, Maribyrnong, VIC 3032",
        "latitude": -37.7868573,
        "longitude": 144.8885025,
        "name": "Rmax Rigid Cellular Plastics",
        "phone": "(03) 9553 0385",
        "state": "VIC",
        "suburb": "Maribyrnong",
        "type": "Plastics Reprocessing Facility",
        "website": "https://plasticcenter.com.au/"
    },
    {
        "address": "908 Mountain Highway, Bayswater, VIC 3153",
        "latitude": -37.8381483,
        "longitude": 145.2837144,
        "name": "Megara",
        "phone": "(03) 8720 6600",
        "state": "VIC",
        "suburb": "Bayswater",
        "type": "Plastics Reprocessing Facility",
        "website": "http://www.megara.com.au/"
    },
    {
        "address": "208 Hume Highway, Somerton, VIC 3062",
        "latitude": -37.6408874,
        "longitude": 144.9510552,
        "name": "Close The Loop",
        "phone": "(03) 9684 4600",
        "state": "VIC",
        "suburb": "Somerton",
        "type": "Plastics Reprocessing Facility",
        "website": "https://closedloop.com.au/"
    },
    {
        "address": "33 Scammel Street, Campbellfield, VIC 3061",
        "latitude": -37.6483519,
        "longitude": 144.9440521,
        "name": "Map Precision Plastics",
        "phone": "0414 315 325",
        "state": "VIC",
        "suburb": "Campbellfield",
        "type": "Plastics Reprocessing Facility",
        "website": "https://www.mapprecision.com.au/contact.html"
    },
    {
        "address": "32 Gilbertson Road, Laverton North, VIC 3026",
        "latitude": -37.8206832,
        "longitude": 144.7863434,
        "name": "Cleanaway Laverton Mrf",
        "phone": "1300 66 77 87",
        "state": "VIC",
        "suburb": "Laverton North",
        "type": "Plastics Reprocessing Facility",
        "website": "https://www.cleanaway.com.au/location/laverton-mrf/?utm_source=GMB&utm_medium=organic&utm_campaign=GBP_Laverton-MRF"
    },
    {
        "address": "82 Levanswell Road, Moorabbin, VIC 3189",
        "latitude": -37.9468285,
        "longitude": 145.0709271,
        "name": "Olympic Plastics",
        "phone": "(03) 9555 5559",
        "state": "VIC",
        "suburb": "Moorabbin",
        "type": "Plastics Reprocessing Facility",
        "website": "https://olympicpolymers.com/"
    },
    {
        "address": "430 Barry Road, Coolaroo, VIC 3048",
        "latitude": -37.6653386,
        "longitude": 144.9394128,
        "name": "Vicfoam",
        "phone": "(03) 9302 1022",
        "state": "VIC",
        "suburb": "Coolaroo",
        "type": "Plastics Reprocessing Facility",
        "website": "https://www.foamex.com.au/"
    },
    {
        "address": "40 Buys Court, Derrimut, VIC 3026",
        "latitude": -37.7987517,
        "longitude": 144.755447,
        "name": "Unipod",
        "phone": "1800 486 476",
        "state": "VIC",
        "suburb": "Derrimut",
        "type": "Plastics Reprocessing Facility",
        "website": "http://www.unipod.com.au/"
    },
    {
        "address": "329 St Albans Road, Sunshine North, VIC 3020",
        "latitude": -37.77430145,
        "longitude": 144.8247953,
        "name": "National Polystyrene Systems",
        "phone": "(07) 3323 8588",
        "state": "VIC",
        "suburb": "Sunshine North",
        "type": "Plastics Reprocessing Facility",
        "website": "http://www.nationalpolystyrene.com.au/nps/"
    },
    {
        "address": "5-11 Japaddy Street, Mordialloc, VIC 3195",
        "latitude": -37.9893803,
        "longitude": 145.1059752,
        "name": "Polymer Processors",
        "phone": "(03) 9587 5119",
        "state": "VIC",
        "suburb": "Mordialloc",
        "type": "Plastics Reprocessing Facility",
        "website": "http://www.polymerprocessors.com.au/"
    },
    {
        "address": "24-36 Dandenong Street, Dandenong, VIC 3175",
        "latitude": -37.9937145,
        "longitude": 145.1996345,
        "name": "Polyfoam",
        "phone": "(03) 9794 8320",
        "state": "VIC",
        "suburb": "Dandenong",
        "type": "Plastics Reprocessing Facility",
        "website": "https://www.polyfoam.com.au/"
    },
    {
        "address": "16 Egan Road, Dandenong, VIC 3175",
        "latitude": -37.9932255,
        "longitude": 145.1946351,
        "name": "Eq Plastics",
        "phone": "(03) 9792 0356",
        "state": "VIC",
        "suburb": "Dandenong",
        "type": "Plastics Reprocessing Facility",
        "website": "https://www.eqplastics.com.au/"
    },
    {
        "address": "168 Roseneath Street, Clifton Hill, VIC 3068",
        "latitude": -37.7926965,
        "longitude": 144.9969495,
        "name": "Yarra Recycling Centre",
        "phone": "(03) 9205 5555",
        "state": "VIC",
        "suburb": "Clifton Hill",
        "type": "Plastics Recovery Facility",
        "website": "http://www.yarracity.vic.gov.au/Services/Waste-Services/Recycling-drop-off-point/"
    },
    {
        "address": "72 Harcourt Road, Altona, VIC 3018",
        "latitude": -37.8503469,
        "longitude": 144.7812724,
        "name": "Cleanaway Altona",
        "phone": "(03) 8199 6400",
        "state": "VIC",
        "suburb": "Altona",
        "type": "Plastics Reprocessing Facility",
        "website": "https://www.cleanaway.com.au/location/altona/?utm_source=GMB&utm_medium=organic&utm_campaign=GBP_Altona"
    },
    {
        "address": "10 Ej Court, Dandenong South, VIC 3175",
        "latitude": -38.0061778,
        "longitude": 145.246728,
        "name": "Garden City Plastics",
        "phone": "1300 695 098",
        "state": "VIC",
        "suburb": "Dandenong South",
        "type": "Plastics Reprocessing Facility",
        "website": "http://www.gardencityplastics.com/"
    },
    {
        "address": "17-21 Freight Drive, Somerton, VIC 3062",
        "latitude": -37.6398814,
        "longitude": 144.9628268,
        "name": "Complete Pod Solutions",
        "phone": "(03) 9588 0436",
        "state": "VIC",
        "suburb": "Somerton",
        "type": "Plastics Reprocessing Facility",
        "website": "https://podservices.com.au/"
    },
    {
        "address": "17-21 Freight Drive, Somerton, VIC 3062",
        "latitude": -37.6398814,
        "longitude": 144.9628268,
        "name": "Foamex North",
        "phone": "(03) 9219 6200",
        "state": "VIC",
        "suburb": "Somerton",
        "type": "Plastics Reprocessing Facility",
        "website": "https://www.foamex.com.au/?utm_source=google&utm_medium=organic&utm_campaign=gbp-listing"
    },
    {
        "address": "5 Forge Street, Welshpool, WA 6106",
        "latitude": -31.9891674,
        "longitude": 115.9319005,
        "name": "Claw Environmental",
        "phone": "(08) 9333 4888",
        "state": "WA",
        "suburb": "Welshpool",
        "type": "Plastics Reprocessing Facility",
        "website": "http://www.clawenvironmental.com/"
    },
    {
        "address": "9 Edward Street, Bellevue, WA 6056",
        "latitude": -31.8981491,
        "longitude": 116.0214922,
        "name": "Poly Pipe Recycling",
        "phone": "(03) 9559 4270",
        "state": "WA",
        "suburb": "Bellevue",
        "type": "Plastics Reprocessing Facility",
        "website": "http://astronsustainability.com/"
    },
    {
        "address": "42 Kelvin Road, Maddington, WA 6109",
        "latitude": -32.0341834,
        "longitude": 116.0008658,
        "name": "M8 Sustainable",
        "phone": "(08) 6377 9600",
        "state": "WA",
        "suburb": "Maddington",
        "type": "Plastics Reprocessing Facility",
        "website": "http://m8sustainable.com.au/"
    },
    {
        "address": "27 Da Vinci Way, Forrestdale, WA 6112",
        "latitude": -32.1411238,
        "longitude": 115.9656226,
        "name": "Astron Sustainability",
        "phone": "(03) 9559 4270",
        "state": "WA",
        "suburb": "Forrestdale",
        "type": "Plastics Reprocessing Facility",
        "website": "http://astronsustainability.com/"
    },
    {
        "address": "22 Pedretti Road, Picton East, WA 6229",
        "latitude": -33.3602144,
        "longitude": 115.7205237,
        "name": "Hastie Waste Pty Ltd",
        "phone": "(08) 9731 0296",
        "state": "WA",
        "suburb": "Picton East",
        "type": "Plastics Reprocessing Facility",
        "website": "https://hastiewaste.com.au/"
    },
    {
        "address": "Lot 400 Buckleys Road, Bilingurr, WA 6725",
        "latitude": -17.9004045,
        "longitude": 122.2353363,
        "name": "Broome Waste Management Facility",
        "phone": "(08) 9191 8777",
        "state": "WA",
        "suburb": "Bilingurr",
        "type": "Plastics Reprocessing Facility",
        "website": "https://www.asbestossafety.gov.au/broome-waste-management-facility-0"
    },
    {
        "address": "367 Wilton Road, Awaba, NSW 2283",
        "latitude": -33.0062199,
        "longitude": 151.5536247,
        "name": "Awaba Waste Management Facility",
        "phone": "(02) 4921 0778",
        "state": "NSW",
        "suburb": "Awaba",
        "type": "Plastics Recovery Facility",
        "website": "https://www.lakemac.com.au/For-residents/Waste-and-recycling/Community-Recycling-Centre"
    },
    {
        "address": "6 Herbert Place, Smithfield, NSW 2164",
        "latitude": -33.8518346,
        "longitude": 150.9506143,
        "name": "Visy Recycling",
        "phone": "(02) 8724 9124",
        "state": "NSW",
        "suburb": "Smithfield",
        "type": "Plastics Reprocessing Facility",
        "website": "http://visy.com.au/"
    },
    {
        "address": "54 Chaston Street, Wagga Wagga, NSW 2650",
        "latitude": -35.1218388,
        "longitude": 147.355216,
        "name": "Kurrajong Recycling",
        "phone": "(02) 6925 5004",
        "state": "NSW",
        "suburb": "Wagga Wagga",
        "type": "Plastics Recovery Facility",
        "website": "https://kurrajong.com.au/businesses/recycling/"
    },
    {
        "address": "25 Barfield Crescent, Edinburgh North, SA 5113",
        "latitude": -34.7045185,
        "longitude": 138.6673269,
        "name": "Coolfoam",
        "phone": "(07) 3209 1044",
        "state": "SA",
        "suburb": "Edinburgh North",
        "type": "Plastics Reprocessing Facility",
        "website": "https://www.koolfoam.com.au/"
    },
    {
        "address": "500 Churchill Road, Kilburn, SA 5084",
        "latitude": -34.8495881,
        "longitude": 138.5824748,
        "name": "Lokan Nominees",
        "phone": "(03) 8773 8200",
        "state": "SA",
        "suburb": "Kilburn",
        "type": "Plastics Reprocessing Facility",
        "website": "https://www.app.net.au/"
    },
    {
        "address": "17 Lindsay Road, Lonsdale, SA 5160",
        "latitude": -35.1029249,
        "longitude": 138.500456,
        "name": "Adelaide Granulation Industries",
        "phone": "0428 990 140",
        "state": "SA",
        "suburb": "Lonsdale",
        "type": "Plastics Reprocessing Facility",
        "website": "No Website Available"
    },
    {
        "address": "16-20 Johansson Road, Wingfield, SA 5013",
        "latitude": -34.8447109,
        "longitude": 138.570064,
        "name": "Yca Recycling",
        "phone": "1300 503 882",
        "state": "SA",
        "suburb": "Wingfield",
        "type": "Plastics Reprocessing Facility",
        "website": "http://www.ycarecycling.com/"
    },
    {
        "address": "731-733 Koorlong Avenue, Irymple, VIC 3498",
        "latitude": -34.2351075,
        "longitude": 142.170216,
        "name": "Andpak",
        "phone": "(03) 5024 5819",
        "state": "VIC",
        "suburb": "Irymple",
        "type": "Plastics Reprocessing Facility",
        "website": "http://www.andpak.com.au/"
    },
    {
        "address": "316 Etiwanda Avenue, Mildura, VIC 3500",
        "latitude": -34.1933836,
        "longitude": 142.1725482,
        "name": "Integrated Recycling",
        "phone": "1300 729 253",
        "state": "VIC",
        "suburb": "Mildura",
        "type": "Plastics Reprocessing Facility",
        "website": "https://www.integratedrecycling.com.au/"
    },
    {
        "address": "35 Swainston Road, Shepparton East, VIC 3631",
        "latitude": -36.3882266,
        "longitude": 145.4740639,
        "name": "Elite Manufacturing",
        "phone": "(04) 7671 9255",
        "state": "VIC",
        "suburb": "Shepparton East",
        "type": "Plastics Reprocessing Facility",
        "website": "https://elitemanufacturing.com.au/"
    },
    {
        "address": "4990 Murray Valley Highway, Strathmerton, VIC 3641",
        "latitude": -35.9254642,
        "longitude": 145.4404605,
        "name": "Plastic Forests Pty Ltd",
        "phone": "(02) 6048 0532",
        "state": "VIC",
        "suburb": "Strathmerton",
        "type": "Plastics Reprocessing Facility",
        "website": "http://plasticforests.com.au/"
    },
    {
        "address": "199 Thelma Street, Como, WA 6152",
        "latitude": -31.9968419,
        "longitude": 115.8810763,
        "name": "South Perth Recycling Centre",
        "phone": "(08) 9474 0970",
        "state": "WA",
        "suburb": "Como",
        "type": "Plastics Reprocessing Facility",
        "website": "https://southperth.wa.gov.au/residents/waste-and-recycling/recycling"
    },
    {
        "address": "26 Albert Terrace, Solomontown, SA 5540",
        "latitude": -33.1882639,
        "longitude": 138.0159224,
        "name": "Plastic Recyclers",
        "phone": "(03) 9559 4270",
        "state": "SA",
        "suburb": "Solomontown",
        "type": "Plastics Reprocessing Facility",
        "website": "No Website Available"
    },
    {
        "address": "50 Elsworth Street, Canadian, VIC 3350",
        "latitude": -37.5824601,
        "longitude": 143.8727503,
        "name": "Repeat Plastics Australia",
        "phone": "(03) 9770 8390",
        "state": "VIC",
        "suburb": "Canadian",
        "type": "Plastics Reprocessing Facility",
        "website": "https://replas.com.au/"
    },
    {
        "address": "Lot 5043 Novis Quarry Road, Cossack, NT 850",
        "latitude": -14.50781427,
        "longitude": 132.2367007,
        "name": "Katherine Waste Management Facility",
        "phone": "(08) 8971 2014",
        "state": "NT",
        "suburb": "Cossack",
        "type": "Plastics Recovery Facility",
        "website": "No Website Available"
    }
]