[
    {
        "address": "21 UNDERWOOD ROAD",
        "latitude": -35.342954,
        "longitude": 149.203882,
        "name": "ACT WASTEWATER & MUD RECOVERY",
        "postcode": 2620,
        "state": "ACT",
        "suburb": "BEARD"
    },
    {
        "address": "APPIN ROAD",
        "latitude": -34.2536229999999,
        "longitude": 150.870465,
        "name": "APPIN SANDS QUARRY",
        "postcode": 2560,
        "state": "NSW",
        "suburb": "APPIN"
    },
    {
        "address": "SPRINGRIDGE ROAD",
        "latitude": -32.3660219999999,
        "longitude": 149.451793,
        "name": "BORAL COUNTRY CONCRETE & QUARRIES",
        "postcode": 2852,
        "state": "NSW",
        "suburb": "BERYL"
    },
    {
        "address": "PACIFIC HIGHWAY",
        "latitude": -30.747266,
        "longitude": 152.9182,
        "name": "MACKSVILLE QUARRY",
        "postcode": 2447,
        "state": "NSW",
        "suburb": "MACKSVILLE"
    },
    {
        "address": "RED HILL ROAD",
        "latitude": -36.869971,
        "longitude": 149.895844,
        "name": "MERIMBULA WASTE & RECYCLING DEPOT",
        "postcode": 2548,
        "state": "NSW",
        "suburb": "MERIMBULA"
    },
    {
        "address": "PORTERS LANE",
        "latitude": -34.461496,
        "longitude": 147.758755,
        "name": "TEYS AUSTRALIA JINDALEE",
        "postcode": 2666,
        "state": "NSW",
        "suburb": "SPRINGDALE"
    },
    {
        "address": "OAKLEIGH LANE",
        "latitude": -33.2369249999999,
        "longitude": 148.062174,
        "name": "ANL OAKLEIGH",
        "postcode": 2870,
        "state": "NSW",
        "suburb": "TICHBORNE"
    },
    {
        "address": "VICTORIA AVENUE",
        "latitude": -34.319606,
        "longitude": 148.306796,
        "name": "ELOUERA RECYCLING YOUNG",
        "postcode": 2594,
        "state": "NSW",
        "suburb": "YOUNG"
    },
    {
        "address": "181 RACECOURSE ROAD",
        "latitude": -19.311281,
        "longitude": 146.831566,
        "name": "GOODSELL EARTHMOVING YARD",
        "postcode": 4812,
        "state": "QLD",
        "suburb": "CLUDEN"
    },
    {
        "address": "OLD FORCETT ROAD",
        "latitude": -42.847615,
        "longitude": 147.625196,
        "name": "DODGES FERRY RECYCLING CENTRE",
        "postcode": 7173,
        "state": "TAS",
        "suburb": "DODGES FERRY"
    },
    {
        "address": "INTERLAKEN ROAD",
        "latitude": -42.2658049999999,
        "longitude": 147.289143,
        "name": "PURE LIVING SOIL",
        "postcode": 7120,
        "state": "TAS",
        "suburb": "OATLANDS"
    },
    {
        "address": "GIBLIN DRIVE",
        "latitude": -42.7916989999999,
        "longitude": 147.561548,
        "name": "SORELL RECYCLING CENTRE",
        "postcode": 7172,
        "state": "TAS",
        "suburb": "SORELL"
    },
    {
        "address": "KEROSENE LANE",
        "latitude": -32.294923,
        "longitude": 115.81598,
        "name": "KEROSENE LANE",
        "postcode": 6171,
        "state": "WA",
        "suburb": "BALVIDIS"
    },
    {
        "address": "POSTANS ROAD",
        "latitude": -32.188212,
        "longitude": 115.809764,
        "name": "ECO RESOURCES",
        "postcode": 6167,
        "state": "WA",
        "suburb": "HOPE VALLEY"
    },
    {
        "address": "POSTANS ROAD",
        "latitude": -32.188212,
        "longitude": 115.809764,
        "name": "ECO RESOURCES",
        "postcode": 6167,
        "state": "WA",
        "suburb": "HOPE VALLEY"
    },
    {
        "address": "POSTANS ROAD",
        "latitude": -32.188212,
        "longitude": 115.809764,
        "name": "ECO RESOURCES",
        "postcode": 6167,
        "state": "WA",
        "suburb": "HOPE VALLEY"
    },
    {
        "address": "POSTANS ROAD",
        "latitude": -32.188212,
        "longitude": 115.809764,
        "name": "ECO RESOURCES",
        "postcode": 6167,
        "state": "WA",
        "suburb": "HOPE VALLEY"
    },
    {
        "address": "LOT 3906 SPRINGDALE ROAD",
        "latitude": -32.0917229999999,
        "longitude": 116.092048,
        "name": "ROLEYSTONE GREENWASTE SITE",
        "postcode": 6111,
        "state": "WA",
        "suburb": "KARRAGULLEN"
    },
    {
        "address": "2526 COOLAWANYAH ROAD",
        "latitude": -20.7663289999999,
        "longitude": 116.874647,
        "name": "SIMS KARRATHA",
        "postcode": 6714,
        "state": "WA",
        "suburb": "KARRATHA"
    },
    {
        "address": "LOT 422 OLD QUARRY ROAD",
        "latitude": -31.6467769999999,
        "longitude": 116.635706,
        "name": "OLD QUARRY ROAD WASTE MANAGEMENT FACILITY",
        "postcode": 6401,
        "state": "WA",
        "suburb": "NORTHAM"
    },
    {
        "address": "LOT 422 OLD QUARRY ROAD",
        "latitude": -31.6467769999999,
        "longitude": 116.635706,
        "name": "OLD QUARRY ROAD WASTE MANAGEMENT FACILITY",
        "postcode": 6401,
        "state": "WA",
        "suburb": "NORTHAM"
    },
    {
        "address": "JOLLY STREET",
        "latitude": -35.2407345,
        "longitude": 149.0597345,
        "name": "BELCONNEN RECYCLING DROP OFF CENTRE",
        "postcode": 2617,
        "state": "ACT",
        "suburb": "BELCONNEN"
    },
    {
        "address": "JOLLY STREET",
        "latitude": -35.2407345,
        "longitude": 149.0597345,
        "name": "BELCONNEN RECYCLING DROP OFF CENTRE",
        "postcode": 2617,
        "state": "ACT",
        "suburb": "BELCONNEN"
    },
    {
        "address": "1 RECYCLING LOOP",
        "latitude": -35.395755,
        "longitude": 149.1475337,
        "name": "RE.GROUP",
        "postcode": 2620,
        "state": "ACT",
        "suburb": "ACT REMAINDER - JERRABOMBERRA"
    },
    {
        "address": "PIALLIGO AVENUE",
        "latitude": -35.3213572,
        "longitude": 149.200581,
        "name": "CANBERRA CONCRETE RECYCLING",
        "postcode": 2609,
        "state": "ACT",
        "suburb": "PIALLIGO"
    },
    {
        "address": "DIRTY BUTTER CREEK ROAD",
        "latitude": -35.623623,
        "longitude": 149.799182,
        "name": "ARALUEN WASTE FACILITY",
        "postcode": 2622,
        "state": "NSW",
        "suburb": "ARALUEN"
    },
    {
        "address": "108 LONG SWAMP ROAD",
        "latitude": -30.540244,
        "longitude": 151.685996,
        "name": "ARMIDALE WASTE MANAGEMENT FACILITY",
        "postcode": 2350,
        "state": "NSW",
        "suburb": "ARMIDALE"
    },
    {
        "address": "108 LONG SWAMP ROAD",
        "latitude": -30.540244,
        "longitude": 151.685996,
        "name": "ARMIDALE WASTE MANAGEMENT FACILITY",
        "postcode": 2350,
        "state": "NSW",
        "suburb": "ARMIDALE"
    },
    {
        "address": "108 LONG SWAMP ROAD",
        "latitude": -30.540244,
        "longitude": 151.685996,
        "name": "ARMIDALE WASTE MANAGEMENT FACILITY",
        "postcode": 2350,
        "state": "NSW",
        "suburb": "ARMIDALE"
    },
    {
        "address": "108 LONG SWAMP ROAD",
        "latitude": -30.540244,
        "longitude": 151.685996,
        "name": "ARMIDALE WASTE MANAGEMENT FACILITY",
        "postcode": 2350,
        "state": "NSW",
        "suburb": "ARMIDALE"
    },
    {
        "address": "LONG SWAMP ROAD",
        "latitude": -30.5386683999999,
        "longitude": 151.6829012,
        "name": "ARMIDALE MRF",
        "postcode": 2350,
        "state": "NSW",
        "suburb": "ARMIDALE"
    },
    {
        "address": "1 MANDAMAH ROAD",
        "latitude": -34.1561555,
        "longitude": 147.383868,
        "name": "ACCESS RECYCLING",
        "postcode": 2668,
        "state": "NSW",
        "suburb": "BARMEDMAN"
    },
    {
        "address": "CHALLENGER DRIVE",
        "latitude": -33.7173538,
        "longitude": 151.2106513,
        "name": "WARRINGAH GRAVEL & STONE SUPPLIES",
        "postcode": 2085,
        "state": "NSW",
        "suburb": "BELROSE"
    },
    {
        "address": "13 CRAFTMAN AVENUE",
        "latitude": -33.3277667,
        "longitude": 151.4219117,
        "name": "EBH ENVIRONMENTAL BERKELEY VALE",
        "postcode": 2261,
        "state": "NSW",
        "suburb": "BERKELEY VALE"
    },
    {
        "address": "62 ST MARYS ROAD",
        "latitude": -33.6721436,
        "longitude": 150.7973324,
        "name": "SCOTTS AUSTRALIA",
        "postcode": 2765,
        "state": "NSW",
        "suburb": "BERKSHIRE PARK"
    },
    {
        "address": "79-81 STEPHEN ROAD",
        "latitude": -33.9537648699999,
        "longitude": 151.209486,
        "name": "INFRABUILD RECYCLING",
        "postcode": 2019,
        "state": "NSW",
        "suburb": "BANKSMEADOW"
    },
    {
        "address": "CORNER MOORE STREET & BAKER STREET",
        "latitude": -33.945368,
        "longitude": 151.216086,
        "name": "VISY BOTANY",
        "postcode": 2019,
        "state": "NSW",
        "suburb": "BANKSMEADOW"
    },
    {
        "address": "CORNER MOORE STREET & BAKER STREET",
        "latitude": -33.945368,
        "longitude": 151.216086,
        "name": "VISYPAK",
        "postcode": 2019,
        "state": "NSW",
        "suburb": "BANKSMEADOW"
    },
    {
        "address": "GLENLEE ROAD",
        "latitude": -34.08140652,
        "longitude": 150.7507009,
        "name": "CAMDEN SOIL MIX",
        "postcode": 2563,
        "state": "NSW",
        "suburb": "MENANGLE PARK"
    },
    {
        "address": "LOT 2 DARGAVILLE DRIVE",
        "latitude": -28.8243952,
        "longitude": 153.0261553,
        "name": "NAMMOONA WASTE & RESOURCE RECOVERY FACILITY",
        "postcode": 2470,
        "state": "NSW",
        "suburb": "CASINO"
    },
    {
        "address": "LOT 2 DARGAVILLE DRIVE",
        "latitude": -28.8243952,
        "longitude": 153.0261553,
        "name": "NAMMOONA WASTE & RESOURCE RECOVERY FACILITY",
        "postcode": 2470,
        "state": "NSW",
        "suburb": "CASINO"
    },
    {
        "address": "LOT 2 DARGAVILLE DRIVE",
        "latitude": -28.8243952,
        "longitude": 153.0261553,
        "name": "NAMMOONA WASTE & RESOURCE RECOVERY FACILITY",
        "postcode": 2470,
        "state": "NSW",
        "suburb": "CASINO"
    },
    {
        "address": "53-57 RIVERSIDE ROAD",
        "latitude": -33.9154328,
        "longitude": 150.969658,
        "name": "INFRABUILD RECYCLING",
        "postcode": 2170,
        "state": "NSW",
        "suburb": "CHIPPING NORTON"
    },
    {
        "address": "60/112 CRAWFORD ROAD",
        "latitude": -33.1004122699999,
        "longitude": 151.4560046,
        "name": "AUSTRALIAN NATIVE LANDSCAPES",
        "postcode": 2265,
        "state": "NSW",
        "suburb": "COORANBONG"
    },
    {
        "address": "BROU LAKE ROAD",
        "latitude": -36.1448929699999,
        "longitude": 150.0938305,
        "name": "BROU LANDFILL FACILITY",
        "postcode": 2545,
        "state": "NSW",
        "suburb": "BODALLA"
    },
    {
        "address": "COOBA ROAD",
        "latitude": -32.2071185,
        "longitude": 148.4895335,
        "name": "WHYLANDRA WASTE & RECYCLING CENTRE",
        "postcode": 2830,
        "state": "NSW",
        "suburb": "DUBBO"
    },
    {
        "address": "COOBA ROAD",
        "latitude": -32.2071185,
        "longitude": 148.4895335,
        "name": "DUBBO REGIONAL ORGANIC PROCESSING PLANT",
        "postcode": 2830,
        "state": "NSW",
        "suburb": "DUBBO"
    },
    {
        "address": "BUCKLEYS ROAD",
        "latitude": -34.6062095,
        "longitude": 150.8461305,
        "name": "DUNMORE RECYCLING & WASTE DISPOSAL DEPOT",
        "postcode": 2529,
        "state": "NSW",
        "suburb": "DUNMORE"
    },
    {
        "address": "HONEYCOMB DRIVE",
        "latitude": -33.79511464,
        "longitude": 150.8261556,
        "name": "BINGO EASTERN CREEK RECYCLING ECOLOGY PARK",
        "postcode": 2766,
        "state": "NSW",
        "suburb": "EASTERN CREEK"
    },
    {
        "address": "HONEYCOMB DRIVE",
        "latitude": -33.79511464,
        "longitude": 150.8261556,
        "name": "BINGO EASTERN CREEK RECYCLING ECOLOGY PARK",
        "postcode": 2766,
        "state": "NSW",
        "suburb": "EASTERN CREEK"
    },
    {
        "address": "HONEYCOMB DRIVE",
        "latitude": -33.8003661299999,
        "longitude": 150.8270842,
        "name": "FULTON HOGAN EASTERN CREEK",
        "postcode": 2766,
        "state": "NSW",
        "suburb": "EASTERN CREEK"
    },
    {
        "address": "UNIT 2, 1A RAFFLES GLADE",
        "latitude": -33.7991405,
        "longitude": 150.8353305,
        "name": "CLEANAWAY EASTERN CREEK",
        "postcode": 2766,
        "state": "NSW",
        "suburb": "EASTERN CREEK"
    },
    {
        "address": "WALLGROVE ROAD",
        "latitude": -33.815388,
        "longitude": 150.85486,
        "name": "EASTERN CREEK WASTE AND RECYCLING CENTRE",
        "postcode": 2766,
        "state": "NSW",
        "suburb": "EASTERN CREEK"
    },
    {
        "address": "WALLGROVE ROAD",
        "latitude": -33.815388,
        "longitude": 150.85486,
        "name": "SUEZ EASTERN CREEK ORGANICS",
        "postcode": 2766,
        "state": "NSW",
        "suburb": "EASTERN CREEK"
    },
    {
        "address": "BROADWATER-EVANS HEAD ROAD",
        "latitude": -29.0915669999999,
        "longitude": 153.427162,
        "name": "EVANS HEAD TRANSFER STATION",
        "postcode": 2473,
        "state": "NSW",
        "suburb": "EVANS HEAD"
    },
    {
        "address": "BROADWATER-EVANS HEAD ROAD",
        "latitude": -29.0915669999999,
        "longitude": 153.427162,
        "name": "EVANS HEAD TRANSFER STATION",
        "postcode": 2473,
        "state": "NSW",
        "suburb": "EVANS HEAD"
    },
    {
        "address": "BROADWATER-EVANS HEAD ROAD",
        "latitude": -29.0915669999999,
        "longitude": 153.427162,
        "name": "EVANS HEAD TRANSFER STATION",
        "postcode": 2473,
        "state": "NSW",
        "suburb": "EVANS HEAD"
    },
    {
        "address": "87-93 LISBON STREET",
        "latitude": -33.8703758999999,
        "longitude": 150.974578,
        "name": "DOYLE BROS MRF",
        "postcode": 2165,
        "state": "NSW",
        "suburb": "FAIRFIELD EAST"
    },
    {
        "address": "87-93 LISBON STREET",
        "latitude": -33.8703758999999,
        "longitude": 150.974578,
        "name": "DOYLE BROS MRF",
        "postcode": 2165,
        "state": "NSW",
        "suburb": "FAIRFIELD EAST"
    },
    {
        "address": "27 OAKDALE ROAD",
        "latitude": -32.9886284999999,
        "longitude": 151.6973854,
        "name": "SOLO RESOURCE RECOVERY",
        "postcode": 2290,
        "state": "NSW",
        "suburb": "GATESHEAD"
    },
    {
        "address": "LOT 100 PINES DRIVE",
        "latitude": -31.7177419999999,
        "longitude": 148.646429,
        "name": "GILGANDRA WASTE MANAGEMENT FACILITY",
        "postcode": 2827,
        "state": "NSW",
        "suburb": "GILGANDRA"
    },
    {
        "address": "ASHFORDS ROAD",
        "latitude": -35.2065143199999,
        "longitude": 147.3864308,
        "name": "CARBON MATE ORGANIC RECYCLING",
        "postcode": 2650,
        "state": "NSW",
        "suburb": "GREGADOO"
    },
    {
        "address": "716-752 WALLGROVE ROAD",
        "latitude": -33.8262753999999,
        "longitude": 150.8590706,
        "name": "HORSLEY PARK WASTE MANAGEMENT FACILITY",
        "postcode": 2175,
        "state": "NSW",
        "suburb": "HORSLEY PARK"
    },
    {
        "address": "17 HUSKISSON ROAD",
        "latitude": -35.0357605,
        "longitude": 150.6544595,
        "name": "HUSKISSON RECYCLING AND WASTE FACILITY",
        "postcode": 2540,
        "state": "NSW",
        "suburb": "HUSKISSON"
    },
    {
        "address": "KIMBRIKI ROAD",
        "latitude": -33.688704,
        "longitude": 151.2381675,
        "name": "KIMBRIKI RESOURCE RECOVERY CENTRE",
        "postcode": 2101,
        "state": "NSW",
        "suburb": "INGLESIDE"
    },
    {
        "address": "50 WYLIE ROAD",
        "latitude": -34.46843759,
        "longitude": 150.8100406,
        "name": "WOLLONGONG RECYCLING",
        "postcode": 2526,
        "state": "NSW",
        "suburb": "KEMBLA GRANGE"
    },
    {
        "address": "MID WESTERN HIGHWAY",
        "latitude": -33.5053075599999,
        "longitude": 149.3513741,
        "name": "WIMBLEDON WORMS",
        "postcode": 2799,
        "state": "NSW",
        "suburb": "KINGS PLAINS"
    },
    {
        "address": "1/24 EGRET STREET",
        "latitude": -32.8794603599999,
        "longitude": 151.7644644,
        "name": "BORAL RECYCLING PTY LTD",
        "postcode": 2304,
        "state": "NSW",
        "suburb": "KOORAGANG"
    },
    {
        "address": "CORMORANT ROAD",
        "latitude": -32.8856539999999,
        "longitude": 151.766751,
        "name": "SIMS NEWCASTLE",
        "postcode": 2304,
        "state": "NSW",
        "suburb": "KOORAGANG"
    },
    {
        "address": "NEW ILLAWARRA ROAD",
        "latitude": -34.0485389999999,
        "longitude": 150.979493,
        "name": "LUCAS HEIGHTS WASTE & RECYCLING CENTRE",
        "postcode": 2234,
        "state": "NSW",
        "suburb": "LUCAS HEIGHTS"
    },
    {
        "address": "NEW ILLAWARRA ROAD",
        "latitude": -34.04624387,
        "longitude": 150.971603,
        "name": "SUEZ LUCAS HEIGHTS ORGANICS ORRF",
        "postcode": 2234,
        "state": "NSW",
        "suburb": "LUCAS HEIGHTS"
    },
    {
        "address": "199 SEYMOUR STREET",
        "latitude": -35.575525,
        "longitude": 149.73942,
        "name": "MAJORS CREEK WASTE FACILITY",
        "postcode": 2622,
        "state": "NSW",
        "suburb": "MAJORS CREEK"
    },
    {
        "address": "1A MCINTOSH DRIVE",
        "latitude": -32.8829130999999,
        "longitude": 151.7305649,
        "name": "BENEDICT RECYCLING MAYFIELD WEST",
        "postcode": 2304,
        "state": "NSW",
        "suburb": "MAYFIELD WEST"
    },
    {
        "address": "MENANGLE ROAD",
        "latitude": -34.120179,
        "longitude": 150.739457,
        "name": "MENANGLE SAND & SOIL",
        "postcode": 2568,
        "state": "NSW",
        "suburb": "MENANGLE"
    },
    {
        "address": "8884 KINGS HIGHWAY",
        "latitude": -35.2689743999999,
        "longitude": 149.6839795,
        "name": "LANDTASIA ORGANIC FARMS",
        "postcode": 2622,
        "state": "NSW",
        "suburb": "MANAR"
    },
    {
        "address": "COAL ROAD",
        "latitude": -32.2596045,
        "longitude": 150.913165,
        "name": "MUSWELLBROOK WASTE MANAGEMENT FACILITY",
        "postcode": 2333,
        "state": "NSW",
        "suburb": "MUSWELLBROOK"
    },
    {
        "address": "ARNOLD STREET",
        "latitude": -30.3367865,
        "longitude": 149.7925025,
        "name": "CHALLENGE RECYCLING NARRABRI",
        "postcode": 2390,
        "state": "NSW",
        "suburb": "NARRABRI"
    },
    {
        "address": "LOT 1 SHELLHARBOUR ROAD",
        "latitude": -34.4948103199999,
        "longitude": 150.8952516,
        "name": "SCE PROCESSING & SCE RECYCLING",
        "postcode": 2505,
        "state": "NSW",
        "suburb": "PORT KEMBLA"
    },
    {
        "address": "65-75 YARRAWA STREET",
        "latitude": -33.9330874,
        "longitude": 150.8615302,
        "name": "STATE ASPHALTS",
        "postcode": 2170,
        "state": "NSW",
        "suburb": "PRESTONS"
    },
    {
        "address": "74 LEMINGTON ROAD",
        "latitude": -32.4691852999999,
        "longitude": 151.0573846,
        "name": "BIO-RECYCLE RAVENSWORTH",
        "postcode": 2330,
        "state": "NSW",
        "suburb": "RAVENSWORTH"
    },
    {
        "address": "74 LEMINGTON ROAD",
        "latitude": -32.4691852999999,
        "longitude": 151.0573846,
        "name": "RAVENSWORTH COMPOSTING FACILITY",
        "postcode": 2330,
        "state": "NSW",
        "suburb": "RAVENSWORTH"
    },
    {
        "address": "NEWLINE ROAD",
        "latitude": -32.7532605,
        "longitude": 151.751126,
        "name": "NEWLINE ROAD WASTE FACILITY",
        "postcode": 2324,
        "state": "NSW",
        "suburb": "RAYMOND TERRACE"
    },
    {
        "address": "76-80 VIOLET STREET",
        "latitude": -33.9388162999999,
        "longitude": 151.0046955,
        "name": "SUEZ REVESBY RECYCLING & RECOVERY",
        "postcode": 2212,
        "state": "NSW",
        "suburb": "REVESBY"
    },
    {
        "address": "1A UNWIN STREET",
        "latitude": -33.8290587,
        "longitude": 151.0227365,
        "name": "RECONOMY ROSEHILL",
        "postcode": 2142,
        "state": "NSW",
        "suburb": "ROSEHILL"
    },
    {
        "address": "134 CARNAVON STREET",
        "latitude": -33.83487487,
        "longitude": 151.0332667,
        "name": "MET RECYCLING",
        "postcode": 2128,
        "state": "NSW",
        "suburb": "SILVERWATER"
    },
    {
        "address": "THE DRIFTWAY",
        "latitude": -33.6344144999999,
        "longitude": 150.7747095,
        "name": "HAWKESBURY CITY WASTE MANAGEMENT FACILITY",
        "postcode": 2756,
        "state": "NSW",
        "suburb": "SOUTH WINDSOR"
    },
    {
        "address": "25 BURROWS ROAD SOUTH",
        "latitude": -33.917426,
        "longitude": 151.181429,
        "name": "BORAL RECYCLING PTY LTD",
        "postcode": 2044,
        "state": "NSW",
        "suburb": "ST PETERS"
    },
    {
        "address": "6-10 BURROWS ROAD SOUTH",
        "latitude": -33.9210611,
        "longitude": 151.1746847,
        "name": "VISY PAPER PTY LTD",
        "postcode": 2044,
        "state": "NSW",
        "suburb": "ST PETERS"
    },
    {
        "address": "LEDDAYS CREEK ROAD",
        "latitude": -28.29163026,
        "longitude": 153.4936193,
        "name": "STOTTS CREEK RESOURCE RECOVERY CENTRE",
        "postcode": 2487,
        "state": "NSW",
        "suburb": "STOTTS CREEK"
    },
    {
        "address": "GEORGE BASS DRIVE",
        "latitude": -35.76922809,
        "longitude": 150.209918,
        "name": "SURF BEACH WASTE DEPOT",
        "postcode": 2536,
        "state": "NSW",
        "suburb": "SURF BEACH"
    },
    {
        "address": "123A FOREST ROAD",
        "latitude": -31.0632469999999,
        "longitude": 150.9267865,
        "name": "FOREST ROAD LANDFILL COMPOSTING FACILITY",
        "postcode": 2340,
        "state": "NSW",
        "suburb": "NORTH TAMWORTH"
    },
    {
        "address": "123B FOREST ROAD",
        "latitude": -31.0630826999999,
        "longitude": 150.9242741,
        "name": "CHALLENGE TAMWORTH RECYCLING",
        "postcode": 2340,
        "state": "NSW",
        "suburb": "NORTH TAMWORTH"
    },
    {
        "address": "HUME HIGHWAY",
        "latitude": -35.9968534999999,
        "longitude": 146.9858654,
        "name": "VISY PAPER MILL",
        "postcode": 2640,
        "state": "NSW",
        "suburb": "ETTAMOGAH"
    },
    {
        "address": "THE BUCKETTS WAY",
        "latitude": -31.9480171499999,
        "longitude": 152.4339208,
        "name": "TAREE WASTE MANAGEMENT FACILITY",
        "postcode": 2430,
        "state": "NSW",
        "suburb": "TINONEE"
    },
    {
        "address": "MIDGE ORCHID ROAD",
        "latitude": -32.1272528599999,
        "longitude": 152.4951591,
        "name": "TUNCURRY MRF",
        "postcode": 2428,
        "state": "NSW",
        "suburb": "DARAWANK"
    },
    {
        "address": "LOT 5, 243 BERKELEY ROAD",
        "latitude": -34.45521553,
        "longitude": 150.8495631,
        "name": "INFRABUILD RECYCLING",
        "postcode": 2526,
        "state": "NSW",
        "suburb": "UNANDERRA"
    },
    {
        "address": "HUE HUE ROAD",
        "latitude": -33.2050616399999,
        "longitude": 151.4231256,
        "name": "ANL BUTTONDERRY",
        "postcode": 2259,
        "state": "NSW",
        "suburb": "JILLIBY"
    },
    {
        "address": "18A TATHRA STREET",
        "latitude": -33.4189491,
        "longitude": 151.3171024,
        "name": "RECYCLED CONCRETE PRODUCTS PTY LTD",
        "postcode": 2250,
        "state": "NSW",
        "suburb": "WEST GOSFORD"
    },
    {
        "address": "CNR HASSALL STREET & WIDEMERE ROAD",
        "latitude": -33.8387,
        "longitude": 150.9133395,
        "name": "SUSTAINABLE RESOURCE CENTRE",
        "postcode": 2164,
        "state": "NSW",
        "suburb": "WETHERILL PARK"
    },
    {
        "address": "310 HERBERTON ROAD",
        "latitude": -17.2914,
        "longitude": 145.4726,
        "name": "ATHERTON MRF",
        "postcode": 4883,
        "state": "QLD",
        "suburb": "ATHERTON"
    },
    {
        "address": "CANE GRASS STREET",
        "latitude": -24.342417,
        "longitude": 139.4620775,
        "name": "BEDOURIE LANDFILL",
        "postcode": 4829,
        "state": "QLD",
        "suburb": "BEDOURIE"
    },
    {
        "address": "908 BOWEN DEVELOPMENT ROAD",
        "latitude": -20.073728,
        "longitude": 148.1512035,
        "name": "BOWEN LANDFILL",
        "postcode": 4805,
        "state": "QLD",
        "suburb": "BOWEN"
    },
    {
        "address": "908 BOWEN DEVELOPMENT ROAD",
        "latitude": -20.073728,
        "longitude": 148.1512035,
        "name": "BOWEN LANDFILL",
        "postcode": 4805,
        "state": "QLD",
        "suburb": "BOWEN"
    },
    {
        "address": "908 BOWEN DEVELOPMENT ROAD",
        "latitude": -20.073728,
        "longitude": 148.1512035,
        "name": "BOWEN LANDFILL",
        "postcode": 4805,
        "state": "QLD",
        "suburb": "BOWEN"
    },
    {
        "address": "908 BOWEN DEVELOPMENT ROAD",
        "latitude": -20.073728,
        "longitude": 148.1512035,
        "name": "BOWEN LANDFILL",
        "postcode": 4805,
        "state": "QLD",
        "suburb": "BOWEN"
    },
    {
        "address": "908 BOWEN DEVELOPMENT ROAD",
        "latitude": -20.073728,
        "longitude": 148.1512035,
        "name": "BOWEN LANDFILL",
        "postcode": 4805,
        "state": "QLD",
        "suburb": "BOWEN"
    },
    {
        "address": "MACKAY-BUCASIA ROAD",
        "latitude": -21.0388819999999,
        "longitude": 149.154712,
        "name": "BUCASIA GREEN WASTE FACILITY",
        "postcode": 4750,
        "state": "QLD",
        "suburb": "BUCASIA"
    },
    {
        "address": "96 MT PERRY ROAD SHED C",
        "latitude": -24.8507799999999,
        "longitude": 152.322617,
        "name": "WIDE BAY CAPRICORN BATTERY RECYCLERS - BUNDABERG N",
        "postcode": 4670,
        "state": "QLD",
        "suburb": "BUNDABERG NORTH"
    },
    {
        "address": "CARLO DRIVE",
        "latitude": -20.2839145,
        "longitude": 148.674006,
        "name": "CANNONVALE TRANSFER STATION",
        "postcode": 4802,
        "state": "QLD",
        "suburb": "CANNONVALE"
    },
    {
        "address": "CARLO DRIVE",
        "latitude": -20.2839145,
        "longitude": 148.674006,
        "name": "CANNONVALE TRANSFER STATION",
        "postcode": 4802,
        "state": "QLD",
        "suburb": "CANNONVALE"
    },
    {
        "address": "CARLO DRIVE",
        "latitude": -20.2839145,
        "longitude": 148.674006,
        "name": "CANNONVALE TRANSFER STATION",
        "postcode": 4802,
        "state": "QLD",
        "suburb": "CANNONVALE"
    },
    {
        "address": "CARLO DRIVE",
        "latitude": -20.2839145,
        "longitude": 148.674006,
        "name": "CANNONVALE TRANSFER STATION",
        "postcode": 4802,
        "state": "QLD",
        "suburb": "CANNONVALE"
    },
    {
        "address": "STAN MICKELO DRIVE LOOP",
        "latitude": -26.2924014,
        "longitude": 151.9539023,
        "name": "CHERBOURG MRF",
        "postcode": 4605,
        "state": "QLD",
        "suburb": "CHERBOURG"
    },
    {
        "address": "CLOYNA WEST ROAD",
        "latitude": -26.1100304999999,
        "longitude": 151.8278575,
        "name": "CLOYNA WASTE FACILITY",
        "postcode": 4605,
        "state": "QLD",
        "suburb": "CLOYNA"
    },
    {
        "address": "155 SCOTTSVILLE ROAD",
        "latitude": -20.5672655,
        "longitude": 147.836439,
        "name": "COLLINSVILLE TRANSFER STATION",
        "postcode": 4804,
        "state": "QLD",
        "suburb": "SCOTTVILLE"
    },
    {
        "address": "155 SCOTTSVILLE ROAD",
        "latitude": -20.5672655,
        "longitude": 147.836439,
        "name": "COLLINSVILLE TRANSFER STATION",
        "postcode": 4804,
        "state": "QLD",
        "suburb": "SCOTTVILLE"
    },
    {
        "address": "155 SCOTTSVILLE ROAD",
        "latitude": -20.5672655,
        "longitude": 147.836439,
        "name": "COLLINSVILLE TRANSFER STATION",
        "postcode": 4804,
        "state": "QLD",
        "suburb": "SCOTTVILLE"
    },
    {
        "address": "155 SCOTTSVILLE ROAD",
        "latitude": -20.5672655,
        "longitude": 147.836439,
        "name": "COLLINSVILLE TRANSFER STATION",
        "postcode": 4804,
        "state": "QLD",
        "suburb": "SCOTTVILLE"
    },
    {
        "address": "LOT 10 OLD PACIFIC HIGHWAY",
        "latitude": -27.854728,
        "longitude": 153.31022,
        "name": "HBH RECYCLING COOMERA",
        "postcode": 4209,
        "state": "QLD",
        "suburb": "COOMERA"
    },
    {
        "address": "WONDAI-CHINCHILLA ROAD",
        "latitude": -26.39212,
        "longitude": 151.28819,
        "name": "DURONG RURAL TRANSFER STATION",
        "postcode": 4610,
        "state": "QLD",
        "suburb": "DURONG"
    },
    {
        "address": "62 HOLZWART ROAD",
        "latitude": -23.526,
        "longitude": 148.16224,
        "name": "CQ COMPOST EMERALD",
        "postcode": 4720,
        "state": "QLD",
        "suburb": "EMERALD"
    },
    {
        "address": "12 OLD FOULDEN ROAD",
        "latitude": -21.141271,
        "longitude": 149.146207,
        "name": "BLUE RIVER LANDSCAPE SUPPLIES",
        "postcode": 4740,
        "state": "QLD",
        "suburb": "FOULDEN"
    },
    {
        "address": "57 MT BEERWAH ROAD",
        "latitude": -26.916841,
        "longitude": 152.918934,
        "name": "BASSETT BARKS - MT BEERWAH",
        "postcode": 4518,
        "state": "QLD",
        "suburb": "GLASS HOUSE MOUNTAINS"
    },
    {
        "address": "RUBBISH TIP ROAD",
        "latitude": -28.557195,
        "longitude": 150.332606,
        "name": "GOONDIWINDI LANDFILL",
        "postcode": 4390,
        "state": "QLD",
        "suburb": "GOONDIWINDI"
    },
    {
        "address": "RUBBISH TIP ROAD",
        "latitude": -28.557195,
        "longitude": 150.332606,
        "name": "GOONDIWINDI LANDFILL",
        "postcode": 4390,
        "state": "QLD",
        "suburb": "GOONDIWINDI"
    },
    {
        "address": "1204 LYTON ROAD",
        "latitude": -27.4439086899999,
        "longitude": 153.1165161,
        "name": "RECYCAL",
        "postcode": 4174,
        "state": "QLD",
        "suburb": "HEMMANT"
    },
    {
        "address": "UNIT 2  GOSPORT STREET",
        "latitude": -27.4411010699999,
        "longitude": 153.128479,
        "name": "MRI HEMMANT",
        "postcode": 4174,
        "state": "QLD",
        "suburb": "HEMMANT"
    },
    {
        "address": "OBERLES ROAD",
        "latitude": -26.173797,
        "longitude": 151.6991585,
        "name": "HIVESVILLE TRANSFER STATION",
        "postcode": 4612,
        "state": "QLD",
        "suburb": "HIVESVILLE"
    },
    {
        "address": "INGLEWOOD-TEXAS ROAD",
        "latitude": -28.4299285,
        "longitude": 151.0836515,
        "name": "INGLEWOOD LANDFILL",
        "postcode": 4387,
        "state": "QLD",
        "suburb": "INGLEWOOD"
    },
    {
        "address": "INGLEWOOD-TEXAS ROAD",
        "latitude": -28.4299285,
        "longitude": 151.0836515,
        "name": "INGLEWOOD LANDFILL",
        "postcode": 4387,
        "state": "QLD",
        "suburb": "INGLEWOOD"
    },
    {
        "address": "INGLEWOOD-TEXAS ROAD",
        "latitude": -28.4299285,
        "longitude": 151.0836515,
        "name": "INGLEWOOD LANDFILL",
        "postcode": 4387,
        "state": "QLD",
        "suburb": "INGLEWOOD"
    },
    {
        "address": "QUARRY ROAD PIN GIN HILL",
        "latitude": -17.5384069999999,
        "longitude": 145.9715485,
        "name": "STOTERS HILL WASTE FACILITY",
        "postcode": 4860,
        "state": "QLD",
        "suburb": "STOTERS HILL"
    },
    {
        "address": "QUARRY ROAD PIN GIN HILL",
        "latitude": -17.5384069999999,
        "longitude": 145.9715485,
        "name": "STOTERS HILL WASTE FACILITY",
        "postcode": 4860,
        "state": "QLD",
        "suburb": "STOTERS HILL"
    },
    {
        "address": "LUCK ROAD",
        "latitude": -26.5539034999999,
        "longitude": 151.79221,
        "name": "KINGAROY WASTE FACILITY",
        "postcode": 4610,
        "state": "QLD",
        "suburb": "INVERLAW"
    },
    {
        "address": "173 QUEENS ROAD",
        "latitude": -27.65351,
        "longitude": 153.13568,
        "name": "AMR RECYCLERS KINGSTON",
        "postcode": 4114,
        "state": "QLD",
        "suburb": "KINGSTON"
    },
    {
        "address": "KEARNEYS ROAD",
        "latitude": -26.6899574999999,
        "longitude": 151.6598375,
        "name": "KUMBIA WASTE FACILITY",
        "postcode": 4610,
        "state": "QLD",
        "suburb": "KUMBIA"
    },
    {
        "address": "42 CRITCHTONS ROAD",
        "latitude": -21.1926829999999,
        "longitude": 149.163929,
        "name": "MACKAY MRF",
        "postcode": 4740,
        "state": "QLD",
        "suburb": "PAGET"
    },
    {
        "address": "COONEY ROAD",
        "latitude": -26.6140081,
        "longitude": 152.9792211,
        "name": "VISY MRF MAROOCHYDORE",
        "postcode": 4560,
        "state": "QLD",
        "suburb": "BLI BLI"
    },
    {
        "address": "195-199 DUCHESS ROAD",
        "latitude": -20.764743,
        "longitude": 139.498107,
        "name": "MOUNT ISA METAL RECYCLERS DUCHESS ROAD",
        "postcode": 4825,
        "state": "QLD",
        "suburb": "MICA CREEK"
    },
    {
        "address": "BORCHERTS HILL ROAD",
        "latitude": -26.2542354999999,
        "longitude": 151.977665,
        "name": "MURGON WASTE FACILITY",
        "postcode": 4605,
        "state": "QLD",
        "suburb": "MURGON"
    },
    {
        "address": "FINLAY ROAD",
        "latitude": -26.6958235,
        "longitude": 151.9942595,
        "name": "NANANGO WASTE FACILITY",
        "postcode": 4615,
        "state": "QLD",
        "suburb": "NANANGO"
    },
    {
        "address": "200-228 POTASSIUM STREET",
        "latitude": -27.198887,
        "longitude": 152.989906,
        "name": "KENNEDYS TIMBERS AND NARANGBA RESOURCE RECOVERY CE",
        "postcode": 4504,
        "state": "QLD",
        "suburb": "NARANGBA"
    },
    {
        "address": "WASTE STREET",
        "latitude": -16.9490754,
        "longitude": 145.7629612,
        "name": "CAIRNS MRF",
        "postcode": 4870,
        "state": "QLD",
        "suburb": "PORTSMITH"
    },
    {
        "address": "BERESFORD STREET",
        "latitude": -26.1691999999999,
        "longitude": 151.605331,
        "name": "PROSTON TRANSFER STATION",
        "postcode": 4613,
        "state": "QLD",
        "suburb": "PROSTON"
    },
    {
        "address": "706 MOUNT COTTON ROAD",
        "latitude": -27.576028,
        "longitude": 153.220818,
        "name": "RESOURCE RECOVERIES AND RECYCLING MT COTTON",
        "postcode": 4157,
        "state": "QLD",
        "suburb": "SHELDON"
    },
    {
        "address": "35 VANTASSEL STREET",
        "latitude": -19.338606,
        "longitude": 146.866305,
        "name": "MCCAHILLS EARTHMOVING AND SUPPLIES PTY LTD - STUAR",
        "postcode": 4811,
        "state": "QLD",
        "suburb": "STUART"
    },
    {
        "address": "NEW HILL DRIVE",
        "latitude": -27.6410994999999,
        "longitude": 152.8245685,
        "name": "WATTLE GLEN RECYCLING",
        "postcode": 4301,
        "state": "QLD",
        "suburb": "REDBANK PLAINS"
    },
    {
        "address": "MUNGINDI ROAD",
        "latitude": -28.490831,
        "longitude": 149.461998,
        "name": "TALWOOD TRANSFER STATION",
        "postcode": 4496,
        "state": "QLD",
        "suburb": "NORTH TALWOOD"
    },
    {
        "address": "MUNGINDI ROAD",
        "latitude": -28.490831,
        "longitude": 149.461998,
        "name": "TALWOOD TRANSFER STATION",
        "postcode": 4496,
        "state": "QLD",
        "suburb": "NORTH TALWOOD"
    },
    {
        "address": "MUNGINDI ROAD",
        "latitude": -28.490831,
        "longitude": 149.461998,
        "name": "TALWOOD TRANSFER STATION",
        "postcode": 4496,
        "state": "QLD",
        "suburb": "NORTH TALWOOD"
    },
    {
        "address": "38-72 GRIFFITH STREET",
        "latitude": -27.531643,
        "longitude": 151.948903,
        "name": "BEUTEL OUGHTRED & SONS - TOOWOOMBA",
        "postcode": 4350,
        "state": "QLD",
        "suburb": "HARLAXTON"
    },
    {
        "address": "WATTLECAMP ROAD",
        "latitude": -26.504871,
        "longitude": 151.9779105,
        "name": "WATTLE CAMP TRANSFER STATION",
        "postcode": 4610,
        "state": "QLD",
        "suburb": "BOOIE"
    },
    {
        "address": "WONDAI CHARLESTOWN ROAD",
        "latitude": -26.3345439999999,
        "longitude": 151.8592115,
        "name": "WONDAI WASTE FACILITY",
        "postcode": 4608,
        "state": "QLD",
        "suburb": "CHARLESTOWN"
    },
    {
        "address": "44 - 56 JACKSON DRIVE",
        "latitude": -16.9593849999999,
        "longitude": 145.750387,
        "name": "CAIRNS MULCH",
        "postcode": 4868,
        "state": "QLD",
        "suburb": "WOREE"
    },
    {
        "address": "34 UNION CIRCUIT",
        "latitude": -27.74798584,
        "longitude": 153.2235107,
        "name": "TES-AMM QUEENSLAND",
        "postcode": 4207,
        "state": "QLD",
        "suburb": "YATALA"
    },
    {
        "address": "38 NYHOLT DRIVE",
        "latitude": -27.7306609999999,
        "longitude": 153.220642,
        "name": "RECYCLING DEVELOPMENTS YATALA",
        "postcode": 4207,
        "state": "QLD",
        "suburb": "YATALA"
    },
    {
        "address": "YARD 15 DARLINGTON PARK INDUSTRIAL ESTATE",
        "latitude": -27.77318,
        "longitude": 153.22092,
        "name": "QUEENSLAND METAL RECYCLERS YATALA",
        "postcode": 4207,
        "state": "QLD",
        "suburb": "LUSCOMBE"
    },
    {
        "address": "BOUNDARY ROAD",
        "latitude": -33.9886089999999,
        "longitude": 139.348494,
        "name": "REIMANN",
        "postcode": 5374,
        "state": "SA",
        "suburb": "BOWER"
    },
    {
        "address": "ALLOTMENT 7 (DP 54934) SCHENSCHER ROAD",
        "latitude": -35.1731768999999,
        "longitude": 139.2498191,
        "name": "BRIDGE MILLING",
        "postcode": 5253,
        "state": "SA",
        "suburb": "BRINKLEY"
    },
    {
        "address": "CONDOWIE PLAINS ROAD",
        "latitude": -33.7108571699999,
        "longitude": 138.3830846,
        "name": "CLARE VALLEY WASTE",
        "postcode": 5464,
        "state": "SA",
        "suburb": "BRINKWORTH"
    },
    {
        "address": "HIGGINS ROAD",
        "latitude": -34.614134,
        "longitude": 138.700467,
        "name": "BUCHFELDE LANDFILL",
        "postcode": 5118,
        "state": "SA",
        "suburb": "BUCHFELDE"
    },
    {
        "address": "THOMPSON ROAD",
        "latitude": -34.6914879999999,
        "longitude": 138.526329,
        "name": "JEFFRIES",
        "postcode": 5120,
        "state": "SA",
        "suburb": "BUCKLAND PARK"
    },
    {
        "address": "73-78 HEASLIP ROAD",
        "latitude": -34.72684458,
        "longitude": 138.5979958,
        "name": "GIOVEM",
        "postcode": 5110,
        "state": "SA",
        "suburb": "BURTON"
    },
    {
        "address": "CORNER WATERLOO CORNER ROAD AND HEASLIP ROAD",
        "latitude": -34.7318305599999,
        "longitude": 138.5910194,
        "name": "FERRIS METAL RECYCLERS",
        "postcode": 5110,
        "state": "SA",
        "suburb": "BURTON"
    },
    {
        "address": "522 CROSS KEY RD",
        "latitude": -34.838763,
        "longitude": 138.56075,
        "name": "BRICE METALS TRADING",
        "postcode": 5013,
        "state": "SA",
        "suburb": "WINGFIELD"
    },
    {
        "address": "LOT 6 ALEXANDER AVENUE",
        "latitude": -33.82994,
        "longitude": 138.61671,
        "name": "CLARE VALLEY MRF",
        "postcode": 5453,
        "state": "SA",
        "suburb": "CLARE"
    },
    {
        "address": "SECTION 3029  LOOKOUT ROAD",
        "latitude": -33.77560342,
        "longitude": 138.5734354,
        "name": "SC HEINRICH & CO",
        "postcode": 5453,
        "state": "SA",
        "suburb": "STANLEY FLAT"
    },
    {
        "address": "ALLOTMENT 435 MEGAWS ROAD",
        "latitude": -37.8054305599999,
        "longitude": 140.8054306,
        "name": "AMBERICH",
        "postcode": 5291,
        "state": "SA",
        "suburb": "WORROLONG"
    },
    {
        "address": "126-140 CHURCHILL ROAD NORTH",
        "latitude": -34.8349433499999,
        "longitude": 138.5926365,
        "name": "HALLETT RESOURCES",
        "postcode": 5094,
        "state": "SA",
        "suburb": "DRY CREEK"
    },
    {
        "address": "412 HANSON ROAD NORTH",
        "latitude": -34.82940753,
        "longitude": 138.5537216,
        "name": "ADELAIDE RESOURCE RECOVERY",
        "postcode": 5094,
        "state": "SA",
        "suburb": "DRY CREEK"
    },
    {
        "address": "ACORN RD",
        "latitude": -34.8419969999999,
        "longitude": 138.58467,
        "name": "DOWNER",
        "postcode": 5094,
        "state": "SA",
        "suburb": "DRY CREEK"
    },
    {
        "address": "PEACHEY RD",
        "latitude": -34.7040509999999,
        "longitude": 138.664442,
        "name": "EXIDE TECHNOLOGIES",
        "postcode": 5113,
        "state": "SA",
        "suburb": "EDINBURGH NORTH"
    },
    {
        "address": "118-126 BEDFORD STREET",
        "latitude": -34.839379,
        "longitude": 138.528972,
        "name": "ONESTEEL RECYCLING",
        "postcode": 5013,
        "state": "SA",
        "suburb": "GILLMAN"
    },
    {
        "address": "2 MATSON CRT",
        "latitude": -34.8421,
        "longitude": 138.528811,
        "name": "VISY RECYCLING OPERATIONS",
        "postcode": 5013,
        "state": "SA",
        "suburb": "GILLMAN"
    },
    {
        "address": "BLACKTOP ROAD",
        "latitude": -34.742,
        "longitude": 138.6957639,
        "name": "BORAL",
        "postcode": 5114,
        "state": "SA",
        "suburb": "GOULD CREEK"
    },
    {
        "address": "45/47 GEORGE ST",
        "latitude": -34.7942628,
        "longitude": 138.601599,
        "name": "SA DRUM RECYCLERS",
        "postcode": 5107,
        "state": "SA",
        "suburb": "GREEN FIELDS"
    },
    {
        "address": "LOT 26 GEORGE ST",
        "latitude": -34.794249,
        "longitude": 138.601577,
        "name": "SA DRUM RECYCLERS",
        "postcode": 5107,
        "state": "SA",
        "suburb": "GREEN FIELDS"
    },
    {
        "address": "NORTH BREMER ROAD",
        "latitude": -35.1789649999999,
        "longitude": 139.025502,
        "name": "SOUTHERN WASTE RESOURCECO",
        "postcode": 5255,
        "state": "SA",
        "suburb": "HARTLEY"
    },
    {
        "address": "ALLOTMENT 2 (DP 72316) COMMERCE CRESCENT",
        "latitude": -35.52278641,
        "longitude": 138.6471065,
        "name": "AM CAHILL, PA CAHILL, LM CAHILL, JF CAHILL",
        "postcode": 5211,
        "state": "SA",
        "suburb": "HINDMARSH VALLEY"
    },
    {
        "address": "ALLOTMENT 3  JACKSON ROAD",
        "latitude": -35.14083034,
        "longitude": 138.6385425,
        "name": "ONKAPARINGA CITY COUNCIL",
        "postcode": 5157,
        "state": "SA",
        "suburb": "KANGARILLA"
    },
    {
        "address": "DARK ISLAND WELL ROAD",
        "latitude": -36.0575011999999,
        "longitude": 140.4564657,
        "name": "MASTER BUTCHERS CO",
        "postcode": 5267,
        "state": "SA",
        "suburb": "SHERWOOD"
    },
    {
        "address": "2- 30 BLACKBURN ST",
        "latitude": -34.853282,
        "longitude": 138.585148,
        "name": "PLASTICS GRANULATING",
        "postcode": 5084,
        "state": "SA",
        "suburb": "KILBURN"
    },
    {
        "address": "1207 NORTH COAST ROAD",
        "latitude": -35.6574669999999,
        "longitude": 137.577335,
        "name": "KANGAROO ISLAND WASTE & RECYCLING DEPOT",
        "postcode": 5223,
        "state": "SA",
        "suburb": "KINGSCOTE"
    },
    {
        "address": "ARGENT ROAD",
        "latitude": -34.5401666999999,
        "longitude": 138.766775,
        "name": "AMCOR GLASS",
        "postcode": 5118,
        "state": "SA",
        "suburb": "KINGSFORD"
    },
    {
        "address": "ADAM ROAD",
        "latitude": -36.831129,
        "longitude": 139.863444,
        "name": "KINGSTON GREEN WASTE DEPOT",
        "postcode": 5275,
        "state": "SA",
        "suburb": "KINGSTON SE"
    },
    {
        "address": "SECTION 190, CHAUNCEYS LINE ROAD",
        "latitude": -35.2579239999999,
        "longitude": 139.121918,
        "name": "GABALU",
        "postcode": 5255,
        "state": "SA",
        "suburb": "LANGHORNE CREEK"
    },
    {
        "address": "ALLOTMENT 11, BAKER ROAD",
        "latitude": -34.627978,
        "longitude": 138.576141,
        "name": "SECCAFIEN TREVOR BRIAN, SECCAFIEN",
        "postcode": 5501,
        "state": "SA",
        "suburb": "LEWISTON"
    },
    {
        "address": "23-31 LISTON ROAD",
        "latitude": -35.096848,
        "longitude": 138.502696,
        "name": "MJ QUINN",
        "postcode": 5160,
        "state": "SA",
        "suburb": "LONSDALE"
    },
    {
        "address": "ALLOTMENT 6  CHRISTIE ROAD",
        "latitude": -35.10028083,
        "longitude": 138.4972882,
        "name": "RESOURCECO",
        "postcode": 5160,
        "state": "SA",
        "suburb": "LONSDALE"
    },
    {
        "address": "LOT 79 LISTON ROAD",
        "latitude": -35.0977369999999,
        "longitude": 138.501627,
        "name": "CLEANAWAY LONSDALE",
        "postcode": 5160,
        "state": "SA",
        "suburb": "LONSDALE"
    },
    {
        "address": "ALLOTMENT 203 CRABB ROAD",
        "latitude": -34.51880556,
        "longitude": 138.3791306,
        "name": "SA MUSHROOMS",
        "postcode": 5501,
        "state": "SA",
        "suburb": "LOWER LIGHT"
    },
    {
        "address": "PORT WAKEFIELD ROAD",
        "latitude": -34.494391,
        "longitude": 138.389513,
        "name": "ACQUISTA INVESTMENTS PTY LTD & VEOLIA ENVIRONMENTA",
        "postcode": 5501,
        "state": "SA",
        "suburb": "LOWER LIGHT"
    },
    {
        "address": "PORT WAKEFIELD ROAD",
        "latitude": -34.494391,
        "longitude": 138.389513,
        "name": "INTEGRATED WASTE  SERVICES",
        "postcode": 5501,
        "state": "SA",
        "suburb": "LOWER LIGHT"
    },
    {
        "address": "SECTION 64 AND 327 CRABB ROAD",
        "latitude": -34.516359,
        "longitude": 138.385943,
        "name": "J MATHEWS",
        "postcode": 5501,
        "state": "SA",
        "suburb": "LOWER LIGHT"
    },
    {
        "address": "SECTION 64 AND 327 CRABB ROAD",
        "latitude": -34.516359,
        "longitude": 138.385943,
        "name": "K & M NEILSON",
        "postcode": 5501,
        "state": "SA",
        "suburb": "LOWER LIGHT"
    },
    {
        "address": "LOT 111 MACKEY ROAD",
        "latitude": -34.458926,
        "longitude": 140.626137,
        "name": "LOXTON TRANSFER STATION",
        "postcode": 5333,
        "state": "SA",
        "suburb": "LOXTON"
    },
    {
        "address": "ALLOTMENT 22 (FP 37619) BEACHPORT-FURNER ROAD",
        "latitude": -37.4301369999999,
        "longitude": 140.099151,
        "name": "WOAKWINE STATION",
        "postcode": 5280,
        "state": "SA",
        "suburb": "MAGAREY"
    },
    {
        "address": "SECTION 594 EARL ROAD",
        "latitude": -34.460092,
        "longitude": 138.473962,
        "name": "NATURES FERTILIZER",
        "postcode": 5502,
        "state": "SA",
        "suburb": "MALLALA"
    },
    {
        "address": "SECTION 404, HUNDRED OF FINNISS",
        "latitude": -34.850225,
        "longitude": 139.328087,
        "name": "NULEAF ORGANICS",
        "postcode": 5238,
        "state": "SA",
        "suburb": "MANNUM"
    },
    {
        "address": "OSBORN ROAD",
        "latitude": -35.193859,
        "longitude": 138.55083,
        "name": "D'ARENBERG",
        "postcode": 5171,
        "state": "SA",
        "suburb": "MCLAREN VALE"
    },
    {
        "address": "TATACHILLA ROAD",
        "latitude": -35.219013,
        "longitude": 138.501724,
        "name": "SOUTHERN WASTE RESOURCECO",
        "postcode": 5171,
        "state": "SA",
        "suburb": "MCLAREN VALE"
    },
    {
        "address": "TATACHILLA ROAD",
        "latitude": -35.2203067799999,
        "longitude": 138.4936304,
        "name": "SOUTHERN WASTE RESOURCECO",
        "postcode": 5171,
        "state": "SA",
        "suburb": "MCLAREN VALE"
    },
    {
        "address": "PRINCES HIGHWAY",
        "latitude": -35.126585,
        "longitude": 139.179608,
        "name": "MUSHROOM EXCHANGE",
        "postcode": 5254,
        "state": "SA",
        "suburb": "MONARTO SOUTH"
    },
    {
        "address": "KEPA ROAD",
        "latitude": -35.15138,
        "longitude": 139.352518,
        "name": "THOMAS FOODS INTERNATIONAL MURRAY BRIDGE",
        "postcode": 5259,
        "state": "SA",
        "suburb": "KEPA"
    },
    {
        "address": "ALLOTMENT 21 (D40102), THOMAS DRIVE",
        "latitude": -37.54065515,
        "longitude": 140.4528751,
        "name": "WELLTRANS",
        "postcode": 5279,
        "state": "SA",
        "suburb": "MOUNT BURR"
    },
    {
        "address": "235 LAKE TCE",
        "latitude": -37.848968,
        "longitude": 140.812165,
        "name": "MOUNT GAMBIER AREA/COUNCIL/BIN-IT",
        "postcode": 5290,
        "state": "SA",
        "suburb": "MOUNT GAMBIER"
    },
    {
        "address": "SECTION 341, CASTERTON ROAD",
        "latitude": -37.784344,
        "longitude": 140.933726,
        "name": "JA BRAUN INVESTMENTS",
        "postcode": 5291,
        "state": "SA",
        "suburb": "GLENBURNIE"
    },
    {
        "address": "LOTS 51-52 THELDA ST & LOTS 49-50 NOEL ST",
        "latitude": -35.12291655,
        "longitude": 139.2582583,
        "name": "WALLY'S RECYCLING",
        "postcode": 5253,
        "state": "SA",
        "suburb": "MURRAY BRIDGE"
    },
    {
        "address": "185 BLACKWELL ROAD",
        "latitude": -36.948338,
        "longitude": 140.77317,
        "name": "NARACOORTE TRANSFER STATION",
        "postcode": 5271,
        "state": "SA",
        "suburb": "NARACOORTE"
    },
    {
        "address": "WAR MEMORIAL DRIVE",
        "latitude": -34.9102629999999,
        "longitude": 138.608792,
        "name": "ADELAIDE CITY COUNCIL",
        "postcode": 5006,
        "state": "SA",
        "suburb": "NORTH ADELAIDE"
    },
    {
        "address": "LIEBIG ROAD",
        "latitude": -34.47708419,
        "longitude": 138.9665859,
        "name": "JJC OPERATIONS",
        "postcode": 5355,
        "state": "SA",
        "suburb": "NURIOOTPA"
    },
    {
        "address": "SECTION 340, HUNDRED OF GLENROY",
        "latitude": -36.610286,
        "longitude": 140.576594,
        "name": "PC GILES",
        "postcode": 5271,
        "state": "SA",
        "suburb": "PADTHAWAY"
    },
    {
        "address": "15 BURMA RD",
        "latitude": -34.832189,
        "longitude": 138.6060652,
        "name": "BILL CAIRE CASES",
        "postcode": 5095,
        "state": "SA",
        "suburb": "POORAKA"
    },
    {
        "address": "ALLOTMENT 28, PORT GAWLER ROAD",
        "latitude": -34.646134,
        "longitude": 138.479145,
        "name": "MUSHROOM FARMS",
        "postcode": 5501,
        "state": "SA",
        "suburb": "PORT GAWLER"
    },
    {
        "address": "ALLOTMENT 28, PORT GAWLER ROAD",
        "latitude": -34.646134,
        "longitude": 138.479145,
        "name": "SISBRO PROPERTIES",
        "postcode": 5501,
        "state": "SA",
        "suburb": "PORT GAWLER"
    },
    {
        "address": "PINE FREEZERS RD",
        "latitude": -34.750851,
        "longitude": 135.835562,
        "name": "PORT LINCOLN COUNCIL/D&K QUARRIES",
        "postcode": 5606,
        "state": "SA",
        "suburb": "PORT LINCOLN"
    },
    {
        "address": "SECTION 305, PINE FREEZERS ROAD",
        "latitude": -34.7255279999999,
        "longitude": 135.821422,
        "name": "MCDONALD EARTHMOVERS",
        "postcode": 5607,
        "state": "SA",
        "suburb": "DUCK PONDS"
    },
    {
        "address": "ELLEN STREET",
        "latitude": -33.1679119999999,
        "longitude": 138.011456,
        "name": "NYRSTAR PORT PIRIE",
        "postcode": 5540,
        "state": "SA",
        "suburb": "PORT PIRIE"
    },
    {
        "address": "CLUBHOUSE ROAD",
        "latitude": -35.0476179999999,
        "longitude": 138.525732,
        "name": "BORAL",
        "postcode": 5049,
        "state": "SA",
        "suburb": "SEACLIFF PARK"
    },
    {
        "address": "MAIN SOUTH ROAD",
        "latitude": -35.34232492,
        "longitude": 138.4696123,
        "name": "SOUTHERN QUARRIES",
        "postcode": 5174,
        "state": "SA",
        "suburb": "SELLICKS HILL"
    },
    {
        "address": "ALLOTMENT 9 CALLINGTON ROAD",
        "latitude": -35.249535,
        "longitude": 138.925365,
        "name": "ADELAIDE HILLS RECYCLING",
        "postcode": 5255,
        "state": "SA",
        "suburb": "STRATHALBYN"
    },
    {
        "address": "MORGAN - RENMARK ROAD",
        "latitude": -34.065234,
        "longitude": 139.944246,
        "name": "RIVERHAVEN ENTERPRISES",
        "postcode": 5330,
        "state": "SA",
        "suburb": "MARKARANKA"
    },
    {
        "address": "1/65 STEPHENS AVENUE",
        "latitude": -34.916939,
        "longitude": 138.554948,
        "name": "WHELAN KARTAWAY",
        "postcode": 5031,
        "state": "SA",
        "suburb": "TORRENSVILLE"
    },
    {
        "address": "ALLOTMENT 15 (CP 23105) ROAD TRAIN ROAD",
        "latitude": -34.5810166699999,
        "longitude": 138.4924639,
        "name": "CAPE DIVINE",
        "postcode": 5501,
        "state": "SA",
        "suburb": "TWO WELLS"
    },
    {
        "address": "ALLOTMENT 11, 22 FLOUR MILL ROAD",
        "latitude": -35.2727755299999,
        "longitude": 138.510831,
        "name": "GABALU",
        "postcode": 5172,
        "state": "SA",
        "suburb": "WHITES VALLEY"
    },
    {
        "address": "AYLIFFE STREET",
        "latitude": -32.9959949999999,
        "longitude": 137.49939,
        "name": "WHYALLA TRANSFER STATION",
        "postcode": 5601,
        "state": "SA",
        "suburb": "DOUGLAS POINT"
    },
    {
        "address": "PORT AUGUSTA RD",
        "latitude": -33.0343994,
        "longitude": 137.5849148,
        "name": "LIBERTY PRIMARY STEEL WHYALLA STEELWORDS",
        "postcode": 5600,
        "state": "SA",
        "suburb": "WHYALLA"
    },
    {
        "address": "1 SCHUMACHER RD",
        "latitude": -34.844478,
        "longitude": 138.570814,
        "name": "INTERCAST FOUNDRY",
        "postcode": 5013,
        "state": "SA",
        "suburb": "WINGFIELD"
    },
    {
        "address": "15 FRANCIS RD",
        "latitude": -34.846054,
        "longitude": 138.546191,
        "name": "ASSOCIATED METALS (SA)",
        "postcode": 5013,
        "state": "SA",
        "suburb": "WINGFIELD"
    },
    {
        "address": "3/2 LAFITTE RD",
        "latitude": -34.8429889999999,
        "longitude": 138.58253,
        "name": "SHRED-X SA",
        "postcode": 5094,
        "state": "SA",
        "suburb": "DRY CREEK"
    },
    {
        "address": "CORMACK ROAD",
        "latitude": -34.8405109999999,
        "longitude": 138.548977,
        "name": "J AGNELLO",
        "postcode": 5013,
        "state": "SA",
        "suburb": "WINGFIELD"
    },
    {
        "address": "LOT 254 CNR HINES AND WINGFIELD ROADS",
        "latitude": -34.836533,
        "longitude": 138.5502994,
        "name": "INTEGRATED WASTE SERVICES",
        "postcode": 5013,
        "state": "SA",
        "suburb": "WINGFIELD"
    },
    {
        "address": "NORTH ARM ROAD",
        "latitude": -34.8402859999999,
        "longitude": 138.538397,
        "name": "SIMS WINGFIELD",
        "postcode": 5013,
        "state": "SA",
        "suburb": "WINGFIELD"
    },
    {
        "address": "34 GILMORE STREET",
        "latitude": -41.41998,
        "longitude": 147.1242145,
        "name": "LAUNCESTON MATERIAL RECOVERY FACILITY",
        "postcode": 7248,
        "state": "TAS",
        "suburb": "INVERMAY"
    },
    {
        "address": "REMOUNT ROAD",
        "latitude": -41.40348318,
        "longitude": 147.1502989,
        "name": "LAUNCESTON WASTE CENTRE",
        "postcode": 7248,
        "state": "TAS",
        "suburb": "MOWBRAY"
    },
    {
        "address": "MCROBIES ROAD",
        "latitude": -42.8921139999999,
        "longitude": 147.2925655,
        "name": "MCROBIES GULLY WASTE MANAGEMENT CENTRE",
        "postcode": 7004,
        "state": "TAS",
        "suburb": "SOUTH HOBART"
    },
    {
        "address": "MCMILLAN STREET",
        "latitude": -37.823383,
        "longitude": 147.65864,
        "name": "PAUL VOLK CONTRACTING",
        "postcode": 3875,
        "state": "VIC",
        "suburb": "LUCKNOW"
    },
    {
        "address": "OLD FARNLEY ROAD",
        "latitude": -36.5113259999999,
        "longitude": 146.001273,
        "name": "BENALLA RESOURCE RECOVERY CENTRE",
        "postcode": 3672,
        "state": "VIC",
        "suburb": "BENALLA"
    },
    {
        "address": "JONES ROAD",
        "latitude": -37.8154575,
        "longitude": 144.832642,
        "name": "BROOKLYN RECYCLING PLANT",
        "postcode": 3012,
        "state": "VIC",
        "suburb": "BROOKLYN"
    },
    {
        "address": "2265 SCARSDALE-PITFIELD ROAD",
        "latitude": -36.740451,
        "longitude": 143.603428,
        "name": "WESTERN GYPSUM",
        "postcode": 3475,
        "state": "VIC",
        "suburb": "BEALIBA"
    },
    {
        "address": "224 YEUNGROON WOOSANG ROAD",
        "latitude": -36.3599192999999,
        "longitude": 143.402389,
        "name": "RIVCOW",
        "postcode": 3525,
        "state": "VIC",
        "suburb": "YEUNGROON EAST"
    },
    {
        "address": "3196 HEATHCOTE ROCHESTER ROAD",
        "latitude": -36.324157,
        "longitude": 144.462563,
        "name": "CARL BROWN",
        "postcode": 3561,
        "state": "VIC",
        "suburb": "DIGGORA"
    },
    {
        "address": "SUGARLOAF ROAD",
        "latitude": -36.220985,
        "longitude": 147.890697,
        "name": "CORRYONG TRANSFER STATION",
        "postcode": 3707,
        "state": "VIC",
        "suburb": "CORRYONG"
    },
    {
        "address": "126-134 THOMAS MURRELL CRESCENT",
        "latitude": -38.02216944,
        "longitude": 145.1930972,
        "name": "POLYTRADE RECYCLING - DANDENONG",
        "postcode": 3175,
        "state": "VIC",
        "suburb": "DANDENONG SOUTH"
    },
    {
        "address": "185 DANDENONG HASTINGS ROAD",
        "latitude": -38.0462055,
        "longitude": 145.2330785,
        "name": "WASTE CONVERTERS RECYCLING DEPOT",
        "postcode": 3175,
        "state": "VIC",
        "suburb": "DANDENONG SOUTH"
    },
    {
        "address": "185 FRANKSTON-DANDENONG ROAD",
        "latitude": -38.0462055,
        "longitude": 145.2330785,
        "name": "MARTOGG LCM VICTORIA",
        "postcode": 3175,
        "state": "VIC",
        "suburb": "DANDENONG SOUTH"
    },
    {
        "address": "AJAX ROAD",
        "latitude": -37.334377,
        "longitude": 144.130618,
        "name": "DAYLESFORD MRF",
        "postcode": 3460,
        "state": "VIC",
        "suburb": "DAYLESFORD"
    },
    {
        "address": "WALLIS STREET",
        "latitude": -37.806752,
        "longitude": 143.820391,
        "name": "CHRIS BEV PTY LTD",
        "postcode": 3352,
        "state": "VIC",
        "suburb": "MOUNT MERCER"
    },
    {
        "address": "50 PARINDA ROAD",
        "latitude": -38.120513,
        "longitude": 145.830814,
        "name": "A1 CONCRETE RECYCLING",
        "postcode": 3818,
        "state": "VIC",
        "suburb": "DROUIN"
    },
    {
        "address": "PARINDA ROAD",
        "latitude": -38.120201,
        "longitude": 145.83098,
        "name": "DROUIN CONCRETE RECYCLERS",
        "postcode": 3818,
        "state": "VIC",
        "suburb": "DROUIN"
    },
    {
        "address": "11 RELIANCE COURT",
        "latitude": -36.085117,
        "longitude": 144.454402,
        "name": "VEOLIA ECHUCA MRF",
        "postcode": 3564,
        "state": "VIC",
        "suburb": "PATHO"
    },
    {
        "address": "WOOLSHED ROAD",
        "latitude": -36.301597,
        "longitude": 146.637923,
        "name": "ELDORADO TRANSFER STATION",
        "postcode": 3747,
        "state": "VIC",
        "suburb": "BEECHWORTH"
    },
    {
        "address": "LOT 2 LOMERS ROAD",
        "latitude": -36.4157279999999,
        "longitude": 145.37131,
        "name": "HUMUS COMPOSTING",
        "postcode": 3631,
        "state": "VIC",
        "suburb": "MOOROOPNA"
    },
    {
        "address": "JOHNSTONS ROAD",
        "latitude": -37.8746839999999,
        "longitude": 147.630147,
        "name": "WHELANS QUARRY SANDPIT",
        "postcode": 3875,
        "state": "VIC",
        "suburb": "BAIRNSDALE"
    },
    {
        "address": "AMEYS TRACK",
        "latitude": -38.63992,
        "longitude": 146.222733,
        "name": "JACKSON, MARIA C",
        "postcode": 3960,
        "state": "VIC",
        "suburb": "FOSTER"
    },
    {
        "address": "15 CURR ROAD",
        "latitude": -36.301519,
        "longitude": 144.552842,
        "name": "RESOURCE RESOLUTION",
        "postcode": 3563,
        "state": "VIC",
        "suburb": "LOCKINGTON"
    },
    {
        "address": "FIREBRACE ROAD",
        "latitude": -37.976796,
        "longitude": 146.780465,
        "name": "HEYFIELD SCRAP METAL MERCHANTS",
        "postcode": 3858,
        "state": "VIC",
        "suburb": "HEYFIELD"
    },
    {
        "address": "52 HENTY HIGHWAY",
        "latitude": -36.7379789999999,
        "longitude": 142.204591,
        "name": "MANHARI METALS",
        "postcode": 3400,
        "state": "VIC",
        "suburb": "HORSHAM"
    },
    {
        "address": "GOLFCOURSE ROAD",
        "latitude": -36.739019,
        "longitude": 142.19043,
        "name": "HORSHAM GREEN WASTE PROCESSING",
        "postcode": 3400,
        "state": "VIC",
        "suburb": "HORSHAM"
    },
    {
        "address": "VELORE ROAD",
        "latitude": -38.1030919999999,
        "longitude": 146.920064,
        "name": "KILMANY RESOURCE RECOVERY CENTRE",
        "postcode": 3851,
        "state": "VIC",
        "suburb": "KILMANY"
    },
    {
        "address": "BATTERS LANE",
        "latitude": -37.23120117,
        "longitude": 144.4542847,
        "name": "CENTRAL RECYCLING PTY LTD",
        "postcode": 3444,
        "state": "VIC",
        "suburb": "KYNETON"
    },
    {
        "address": "280 KYABRAM ROAD",
        "latitude": -36.184973,
        "longitude": 145.054821,
        "name": "RPM PIPE",
        "postcode": 3620,
        "state": "VIC",
        "suburb": "WYUNA"
    },
    {
        "address": "WATERTRUST ROAD",
        "latitude": -37.5681284999999,
        "longitude": 149.7371293,
        "name": "MALLACOOTA WATER TREATMENT PLAN",
        "postcode": 3892,
        "state": "VIC",
        "suburb": "MALLACOOTA"
    },
    {
        "address": "MORWELL-MARYVALE ROAD",
        "latitude": -38.1798259999999,
        "longitude": 146.441327,
        "name": "AUSTRALIAN PAPER",
        "postcode": 3840,
        "state": "VIC",
        "suburb": "MARYVALE"
    },
    {
        "address": "113 MORRISSEY STREET",
        "latitude": -36.221755,
        "longitude": 145.08116,
        "name": "ENVIRONMENTALLY STABLE",
        "postcode": 3620,
        "state": "VIC",
        "suburb": "WYUNA"
    },
    {
        "address": "BALLARAT AIRPORT",
        "latitude": -37.512167,
        "longitude": 143.783926,
        "name": "BALLARAT GREEN WASTE INTERCHANGE",
        "postcode": 3355,
        "state": "VIC",
        "suburb": "MITCHELL PARK"
    },
    {
        "address": "31 WALHALLA ROAD",
        "latitude": -38.160177,
        "longitude": 146.260376,
        "name": "PINEGRO MOE",
        "postcode": 3825,
        "state": "VIC",
        "suburb": "MOE"
    },
    {
        "address": "100 POINT HENRY ROAD",
        "latitude": -38.1597599999999,
        "longitude": 144.43026,
        "name": "GT RECYCLING",
        "postcode": 3224,
        "state": "VIC",
        "suburb": "MOOLAP"
    },
    {
        "address": "100 POINT HENRY ROAD",
        "latitude": -38.1597599999999,
        "longitude": 144.43026,
        "name": "GT RECYCLING",
        "postcode": 3224,
        "state": "VIC",
        "suburb": "MOOLAP"
    },
    {
        "address": "547 PRINCES STREET",
        "latitude": -38.231432,
        "longitude": 146.440407,
        "name": "LATROBE VALLEY ENTERPRISES",
        "postcode": 3840,
        "state": "VIC",
        "suburb": "MORWELL"
    },
    {
        "address": "CNR CHURCH & FLEMING STREETS",
        "latitude": -38.2342429999999,
        "longitude": 146.399671,
        "name": "LIFELINE GIPPSLAND",
        "postcode": 3840,
        "state": "VIC",
        "suburb": "MORWELL"
    },
    {
        "address": "CNR CHURCH & FLEMING STREETS",
        "latitude": -38.2342429999999,
        "longitude": 146.399671,
        "name": "LIFELINE GIPPSLAND",
        "postcode": 3840,
        "state": "VIC",
        "suburb": "MORWELL"
    },
    {
        "address": "CNR CHURCH & FLEMING STREETS",
        "latitude": -38.2342429999999,
        "longitude": 146.399671,
        "name": "LIFELINE GIPPSLAND",
        "postcode": 3840,
        "state": "VIC",
        "suburb": "MORWELL"
    },
    {
        "address": "CNR CHURCH & FLEMING STREETS",
        "latitude": -38.2342429999999,
        "longitude": 146.399671,
        "name": "LIFELINE GIPPSLAND",
        "postcode": 3840,
        "state": "VIC",
        "suburb": "MORWELL"
    },
    {
        "address": "LOT 4J SOUTHERN COURT",
        "latitude": -38.247854,
        "longitude": 146.410624,
        "name": "INDUSTRIAL METAL RECYCLERS",
        "postcode": 3840,
        "state": "VIC",
        "suburb": "MORWELL"
    },
    {
        "address": "TRAMWAY ROAD",
        "latitude": -38.239204,
        "longitude": 146.438518,
        "name": "DASMA MRF",
        "postcode": 3840,
        "state": "VIC",
        "suburb": "MORWELL"
    },
    {
        "address": "MADDISONS LANE",
        "latitude": -36.7293,
        "longitude": 147.174674,
        "name": "MOUNT BEAUTY TRANSFER STATION",
        "postcode": 3699,
        "state": "VIC",
        "suburb": "MOUNT BEAUTY"
    },
    {
        "address": "BOGGY CORNER",
        "latitude": -37.1362999999999,
        "longitude": 146.45306,
        "name": "MOUNT BULLER TRANSFER STATION",
        "postcode": 3723,
        "state": "VIC",
        "suburb": "MOUNT BULLER"
    },
    {
        "address": "6 MORRISONS LANE",
        "latitude": -36.543607,
        "longitude": 146.761577,
        "name": "MYRTLEFORD TRANSFER STATION",
        "postcode": 3737,
        "state": "VIC",
        "suburb": "BARWIDGEE"
    },
    {
        "address": "COUNTY BOUNDARY WEST ROAD",
        "latitude": -38.27278,
        "longitude": 143.04848,
        "name": "CORANGAMITE REGIONAL LANDFILL",
        "postcode": 3266,
        "state": "VIC",
        "suburb": "COBRICO"
    },
    {
        "address": "121 OLD DOOKIE ROAD",
        "latitude": -36.223832,
        "longitude": 145.254856,
        "name": "FUTURE RECYCLING SHEPPARTON",
        "postcode": 3629,
        "state": "VIC",
        "suburb": "UNDERA"
    },
    {
        "address": "CNR DOYLES & OLD DOOKIE ROAD",
        "latitude": -36.2238199999999,
        "longitude": 145.255127,
        "name": "BRENDAN O'KEEFE DEMOLITION & RECYCLING",
        "postcode": 3629,
        "state": "VIC",
        "suburb": "UNDERA"
    },
    {
        "address": "29 FILO DRIVE",
        "latitude": -37.64239502,
        "longitude": 144.9570923,
        "name": "TES-AMM VICTORIA",
        "postcode": 3062,
        "state": "VIC",
        "suburb": "SOMERTON"
    },
    {
        "address": "727 MURRAY VALLEY HIGHWAY",
        "latitude": -36.2236,
        "longitude": 147.163442,
        "name": "TALLANGATTA TRANSFER STATION",
        "postcode": 3700,
        "state": "VIC",
        "suburb": "TALLANGATTA"
    },
    {
        "address": "29-35 ROCLA ROAD",
        "latitude": -38.1825669999999,
        "longitude": 146.567244,
        "name": "PINEGRO TRARALGON",
        "postcode": 3844,
        "state": "VIC",
        "suburb": "TRARALGON EAST"
    },
    {
        "address": "57-79 ROCLA ROAD",
        "latitude": -38.1811509999999,
        "longitude": 146.567549,
        "name": "GARY RYAN",
        "postcode": 3844,
        "state": "VIC",
        "suburb": "TRARALGON EAST"
    },
    {
        "address": "YARD 2 DODD COURT",
        "latitude": -38.1839639999999,
        "longitude": 146.562656,
        "name": "G & J CROSBY CONTRACTORS PTY LTD",
        "postcode": 3844,
        "state": "VIC",
        "suburb": "TRARALGON EAST"
    },
    {
        "address": "YARD 2 DODD COURT",
        "latitude": -38.1839639999999,
        "longitude": 146.562656,
        "name": "G & J CROSBY CONTRACTORS PTY LTD",
        "postcode": 3844,
        "state": "VIC",
        "suburb": "TRARALGON EAST"
    },
    {
        "address": "2B OLYMPIC STREET",
        "latitude": -38.164814,
        "longitude": 145.941123,
        "name": "MAPLE RIDGE SCRAP",
        "postcode": 3820,
        "state": "VIC",
        "suburb": "WARRAGUL"
    },
    {
        "address": "4 NEERIM CRESCENT",
        "latitude": -37.516269,
        "longitude": 143.84161,
        "name": "BALLARAT REGIONAL INDUSTRIES",
        "postcode": 3352,
        "state": "VIC",
        "suburb": "MOUNT ROWAN"
    },
    {
        "address": "4 NEERIM CRESCENT",
        "latitude": -37.516269,
        "longitude": 143.84161,
        "name": "BALLARAT REGIONAL INDUSTRIES",
        "postcode": 3352,
        "state": "VIC",
        "suburb": "MOUNT ROWAN"
    },
    {
        "address": "5-7 CORONET STREET",
        "latitude": -37.52725,
        "longitude": 143.847137,
        "name": "ACE RECYCLING INTERCHANGE FACILITY",
        "postcode": 3355,
        "state": "VIC",
        "suburb": "WENDOUREE"
    },
    {
        "address": "5-7 CORONET STREET",
        "latitude": -37.52725,
        "longitude": 143.847137,
        "name": "INFRABUILD RECYCLING",
        "postcode": 3355,
        "state": "VIC",
        "suburb": "WENDOUREE"
    },
    {
        "address": "38 FULLER ROAD NORTH",
        "latitude": -38.587388,
        "longitude": 145.590823,
        "name": "WHEEL-A-WASTE",
        "postcode": 3995,
        "state": "VIC",
        "suburb": "NORTH WONTHAGGI"
    },
    {
        "address": "BOOLA ROAD",
        "latitude": -38.128839,
        "longitude": 146.386388,
        "name": "KENNEDY QUARRY",
        "postcode": 3825,
        "state": "VIC",
        "suburb": "YALLOURN NORTH"
    },
    {
        "address": "WYLIE BAY ROAD",
        "latitude": -33.8266235,
        "longitude": 121.957851,
        "name": "WYLIE BAY MRF",
        "postcode": 6450,
        "state": "WA",
        "suburb": "BANDY CREEK"
    },
    {
        "address": "LOT 71 ROBINS ROAD",
        "latitude": -32.8306464999999,
        "longitude": 116.441109,
        "name": "BODDINGTON REFUSE DISPOSAL SITE",
        "postcode": 6390,
        "state": "WA",
        "suburb": "BODDINGTON"
    },
    {
        "address": "LOT 903 RECYCLE ROAD, BRIDGETOWN-BOYUP BROOK ROAD",
        "latitude": -33.9128474999999,
        "longitude": 116.189947,
        "name": "BRIDGETOWN WASTE FACILITY",
        "postcode": 6255,
        "state": "WA",
        "suburb": "WINNEJUP"
    },
    {
        "address": "LOT 228 BUCKLEYS ROAD",
        "latitude": -17.9004014999999,
        "longitude": 122.235361,
        "name": "SHIRE OF BROOME REFUSE SITE",
        "postcode": 6725,
        "state": "WA",
        "suburb": "BILINGURR"
    },
    {
        "address": "LOT 228 BUCKLEYS ROAD",
        "latitude": -17.9004014999999,
        "longitude": 122.235361,
        "name": "SHIRE OF BROOME REFUSE SITE",
        "postcode": 6725,
        "state": "WA",
        "suburb": "BILINGURR"
    },
    {
        "address": "LOT 228 BUCKLEYS ROAD",
        "latitude": -17.9004014999999,
        "longitude": 122.235361,
        "name": "SHIRE OF BROOME REFUSE SITE",
        "postcode": 6725,
        "state": "WA",
        "suburb": "BILINGURR"
    },
    {
        "address": "LOT 228 BUCKLEYS ROAD",
        "latitude": -17.9004014999999,
        "longitude": 122.235361,
        "name": "SHIRE OF BROOME REFUSE SITE",
        "postcode": 6725,
        "state": "WA",
        "suburb": "BILINGURR"
    },
    {
        "address": "LOT 228 BUCKLEYS ROAD",
        "latitude": -17.9004014999999,
        "longitude": 122.235361,
        "name": "SHIRE OF BROOME REFUSE SITE",
        "postcode": 6725,
        "state": "WA",
        "suburb": "BILINGURR"
    },
    {
        "address": "CNR DOWERIN/KALANNIE ROADS",
        "latitude": -31.1410475,
        "longitude": 117.0977185,
        "name": "AMERY REFUSE SITE",
        "postcode": 6462,
        "state": "WA",
        "suburb": "MINNIVALE"
    },
    {
        "address": "DUMBLEYUNG SOUTH ROAD (RIFLE RANGE ROAD)",
        "latitude": -33.3430415,
        "longitude": 117.748628,
        "name": "DUMBLEYUNG WASTE FACILITY",
        "postcode": 6350,
        "state": "WA",
        "suburb": "DUMBLEYUNG"
    },
    {
        "address": "DUMBLEYUNG SOUTH ROAD (RIFLE RANGE ROAD)",
        "latitude": -33.3430415,
        "longitude": 117.748628,
        "name": "DUMBLEYUNG WASTE FACILITY",
        "postcode": 6350,
        "state": "WA",
        "suburb": "DUMBLEYUNG"
    },
    {
        "address": "KNUTSFORD STREET",
        "latitude": -32.0531604999999,
        "longitude": 115.764897,
        "name": "FREMANTLE RECYCLING CENTRE",
        "postcode": 6160,
        "state": "WA",
        "suburb": "FREMANTLE"
    },
    {
        "address": "KNUTSFORD STREET",
        "latitude": -32.0531604999999,
        "longitude": 115.764897,
        "name": "FREMANTLE RECYCLING CENTRE",
        "postcode": 6160,
        "state": "WA",
        "suburb": "FREMANTLE"
    },
    {
        "address": "KNUTSFORD STREET",
        "latitude": -32.0531604999999,
        "longitude": 115.764897,
        "name": "FREMANTLE RECYCLING CENTRE",
        "postcode": 6160,
        "state": "WA",
        "suburb": "FREMANTLE"
    },
    {
        "address": "TUNNEY ROAD",
        "latitude": -33.8199708999999,
        "longitude": 117.1403275,
        "name": "KOJONUP MRF",
        "postcode": 6395,
        "state": "WA",
        "suburb": "KOJONUP"
    },
    {
        "address": "TUNNEY ROAD",
        "latitude": -33.81841,
        "longitude": 117.146309,
        "name": "KOJONUP WASTE FACILITY",
        "postcode": 6395,
        "state": "WA",
        "suburb": "KOJONUP"
    },
    {
        "address": "TUNNEY ROAD",
        "latitude": -33.81841,
        "longitude": 117.146309,
        "name": "KOJONUP WASTE FACILITY",
        "postcode": 6395,
        "state": "WA",
        "suburb": "KOJONUP"
    },
    {
        "address": "KUKERIN NORTH EAST ROAD",
        "latitude": -33.1807209999999,
        "longitude": 118.095448,
        "name": "KUKERIN WASTE FACILITY",
        "postcode": 6352,
        "state": "WA",
        "suburb": "NORTH KUKERIN"
    },
    {
        "address": "KUKERIN NORTH EAST ROAD",
        "latitude": -33.1807209999999,
        "longitude": 118.095448,
        "name": "KUKERIN WASTE FACILITY",
        "postcode": 6352,
        "state": "WA",
        "suburb": "NORTH KUKERIN"
    },
    {
        "address": "KUKERIN NORTH EAST ROAD",
        "latitude": -33.1807209999999,
        "longitude": 118.095448,
        "name": "KUKERIN WASTE FACILITY",
        "postcode": 6352,
        "state": "WA",
        "suburb": "NORTH KUKERIN"
    },
    {
        "address": "8-89 CHRISTABLE WAY",
        "latitude": -31.8004760699999,
        "longitude": 115.8565063,
        "name": "RECYCAL",
        "postcode": 6065,
        "state": "WA",
        "suburb": "LANDSDALE"
    },
    {
        "address": "JONES LAKE ROAD",
        "latitude": -29.232183,
        "longitude": 116.0202585,
        "name": "MORAWA REFUSE & TRANSFER STATION",
        "postcode": 6623,
        "state": "WA",
        "suburb": "MORAWA"
    },
    {
        "address": "JONES LAKE ROAD",
        "latitude": -29.232183,
        "longitude": 116.0202585,
        "name": "MORAWA REFUSE & TRANSFER STATION",
        "postcode": 6623,
        "state": "WA",
        "suburb": "MORAWA"
    },
    {
        "address": "JONES LAKE ROAD",
        "latitude": -29.232183,
        "longitude": 116.0202585,
        "name": "MORAWA REFUSE & TRANSFER STATION",
        "postcode": 6623,
        "state": "WA",
        "suburb": "MORAWA"
    },
    {
        "address": "JONES LAKE ROAD",
        "latitude": -29.232183,
        "longitude": 116.0202585,
        "name": "MORAWA REFUSE & TRANSFER STATION",
        "postcode": 6623,
        "state": "WA",
        "suburb": "MORAWA"
    },
    {
        "address": "JONES LAKE ROAD",
        "latitude": -29.232183,
        "longitude": 116.0202585,
        "name": "MORAWA REFUSE & TRANSFER STATION",
        "postcode": 6623,
        "state": "WA",
        "suburb": "MORAWA"
    },
    {
        "address": "JONES LAKE ROAD",
        "latitude": -29.232183,
        "longitude": 116.0202585,
        "name": "MORAWA REFUSE & TRANSFER STATION",
        "postcode": 6623,
        "state": "WA",
        "suburb": "MORAWA"
    },
    {
        "address": "60 WHITE ROAD",
        "latitude": -32.9265455,
        "longitude": 117.154503,
        "name": "NARROGIN WASTE MANAGEMENT FACILITY",
        "postcode": 6312,
        "state": "WA",
        "suburb": "NARROGIN"
    },
    {
        "address": "60 WHITE ROAD",
        "latitude": -32.9265455,
        "longitude": 117.154503,
        "name": "NARROGIN WASTE MANAGEMENT FACILITY",
        "postcode": 6312,
        "state": "WA",
        "suburb": "NARROGIN"
    },
    {
        "address": "YATES ROAD",
        "latitude": -23.3858304999999,
        "longitude": 119.7258005,
        "name": "NEWMAN LANDFILL",
        "postcode": 6753,
        "state": "WA",
        "suburb": "NEWMAN"
    },
    {
        "address": "33 YARRI ROAD",
        "latitude": -30.71027,
        "longitude": 121.50946,
        "name": "YARRI ROAD REFUSE FACILITY",
        "postcode": 6434,
        "state": "WA",
        "suburb": "PARKESTON"
    },
    {
        "address": "33 YARRI ROAD",
        "latitude": -30.71027,
        "longitude": 121.50946,
        "name": "YARRI ROAD REFUSE FACILITY",
        "postcode": 6434,
        "state": "WA",
        "suburb": "PARKESTON"
    },
    {
        "address": "BEESTON STREET",
        "latitude": -32.6613404999999,
        "longitude": 117.142036,
        "name": "POPANYINNING WASTE MANAGEMENT FACILITY",
        "postcode": 6309,
        "state": "WA",
        "suburb": "POPANYINNING"
    },
    {
        "address": "62 HYNE ROAD",
        "latitude": -31.9158591,
        "longitude": 115.9675072,
        "name": "CLEANAWAY GUILDFORD MRF",
        "postcode": 6055,
        "state": "WA",
        "suburb": "SOUTH GUILDFORD"
    },
    {
        "address": "HUNT ROAD",
        "latitude": -31.6601904999999,
        "longitude": 117.4938935,
        "name": "TAMMIN REFUSE FACILITY",
        "postcode": 6409,
        "state": "WA",
        "suburb": "SOUTH TAMMIN"
    },
    {
        "address": "HUNT ROAD",
        "latitude": -31.6601904999999,
        "longitude": 117.4938935,
        "name": "TAMMIN REFUSE FACILITY",
        "postcode": 6409,
        "state": "WA",
        "suburb": "SOUTH TAMMIN"
    },
    {
        "address": "HUNT ROAD",
        "latitude": -31.6601904999999,
        "longitude": 117.4938935,
        "name": "TAMMIN REFUSE FACILITY",
        "postcode": 6409,
        "state": "WA",
        "suburb": "SOUTH TAMMIN"
    },
    {
        "address": "HUNT ROAD",
        "latitude": -31.6601904999999,
        "longitude": 117.4938935,
        "name": "TAMMIN REFUSE FACILITY",
        "postcode": 6409,
        "state": "WA",
        "suburb": "SOUTH TAMMIN"
    },
    {
        "address": "HUNT ROAD",
        "latitude": -31.6601904999999,
        "longitude": 117.4938935,
        "name": "TAMMIN REFUSE FACILITY",
        "postcode": 6409,
        "state": "WA",
        "suburb": "SOUTH TAMMIN"
    },
    {
        "address": "DAVIS ROAD",
        "latitude": -34.0354725,
        "longitude": 115.105125,
        "name": "DAVIS ROAD RECYCLING & WASTE MANAGEMENT FACILITY",
        "postcode": 6286,
        "state": "WA",
        "suburb": "FOREST GROVE"
    },
    {
        "address": "DAVIS ROAD",
        "latitude": -34.0354725,
        "longitude": 115.105125,
        "name": "DAVIS ROAD RECYCLING & WASTE MANAGEMENT FACILITY",
        "postcode": 6286,
        "state": "WA",
        "suburb": "FOREST GROVE"
    },
    {
        "address": "DAVIS ROAD",
        "latitude": -34.0354725,
        "longitude": 115.105125,
        "name": "DAVIS ROAD RECYCLING & WASTE MANAGEMENT FACILITY",
        "postcode": 6286,
        "state": "WA",
        "suburb": "FOREST GROVE"
    },
    {
        "address": "INKPEN ROAD",
        "latitude": -31.7829075,
        "longitude": 116.409729,
        "name": "INKPEN ROAD WASTE MANAGEMENT FACILITY",
        "postcode": 6562,
        "state": "WA",
        "suburb": "COPLEY"
    },
    {
        "address": "INKPEN ROAD",
        "latitude": -31.7829075,
        "longitude": 116.409729,
        "name": "INKPEN ROAD WASTE MANAGEMENT FACILITY",
        "postcode": 6562,
        "state": "WA",
        "suburb": "COPLEY"
    },
    {
        "address": "3 PAPERBARK CLOSE",
        "latitude": -28.8584509999999,
        "longitude": 153.5215787,
        "name": "GO GROW",
        "postcode": 2478,
        "state": "NSW",
        "suburb": "WEST BALLINA"
    },
    {
        "address": "1 ANTHONY ROAD",
        "latitude": -34.2763505,
        "longitude": 150.5954745,
        "name": "BARGO WASTE MANAGEMENT CENTRE",
        "postcode": 2574,
        "state": "NSW",
        "suburb": "BARGO"
    },
    {
        "address": "12 GRAND AVENUE",
        "latitude": -33.8221679,
        "longitude": 151.0431368,
        "name": "DOWNER CAMELLIA",
        "postcode": 2142,
        "state": "NSW",
        "suburb": "ROSEHILL"
    },
    {
        "address": "35 MORTON STREET",
        "latitude": -28.2459483,
        "longitude": 153.5588372,
        "name": "NORTHERN RIVERS MRF",
        "postcode": 2487,
        "state": "NSW",
        "suburb": "CHINDERAH"
    },
    {
        "address": "15 MUIR ROAD",
        "latitude": -33.89390215,
        "longitude": 151.0415413,
        "name": "CHULLORA RESOURCE RECOVERY PARK",
        "postcode": 2190,
        "state": "NSW",
        "suburb": "CHULLORA"
    },
    {
        "address": "2 FORD STREET",
        "latitude": -33.8922645,
        "longitude": 151.041186,
        "name": "GPP EXCAVATION & DEMOLITION CONTRACTORS",
        "postcode": 2190,
        "state": "NSW",
        "suburb": "CHULLORA"
    },
    {
        "address": "6 KILLARNEY DRIVE",
        "latitude": -35.3255753999999,
        "longitude": 148.1804503,
        "name": "VALMAR INDUSTRIES GILMORE",
        "postcode": 2720,
        "state": "NSW",
        "suburb": "GILMORE"
    },
    {
        "address": "88 RODGERS ROAD",
        "latitude": -29.7548834999999,
        "longitude": 151.722112,
        "name": "GLEN INNES MRF",
        "postcode": 2370,
        "state": "NSW",
        "suburb": "GLEN INNES"
    },
    {
        "address": "19 SHELLEY STREET",
        "latitude": -35.8770544,
        "longitude": 150.0842058,
        "name": "SUEZ MORUYA MRF",
        "postcode": 2537,
        "state": "NSW",
        "suburb": "MORUYA"
    },
    {
        "address": "60 DONALDSON STREET",
        "latitude": -33.2666024499999,
        "longitude": 151.4504401,
        "name": "CBS RECYCLERS",
        "postcode": 2259,
        "state": "NSW",
        "suburb": "WYONG"
    },
    {
        "address": "7 ENDEAVOUR STREET",
        "latitude": -33.6969458,
        "longitude": 149.8606665,
        "name": "ANL BARK RECYCLING OBERON",
        "postcode": 2787,
        "state": "NSW",
        "suburb": "OBERON"
    },
    {
        "address": "67 WONGA ROAD",
        "latitude": -34.1954441,
        "longitude": 150.610848,
        "name": "REMONDIS PICTON",
        "postcode": 2571,
        "state": "NSW",
        "suburb": "PICTON"
    },
    {
        "address": "40 EDWARD STREET",
        "latitude": -33.66442871,
        "longitude": 150.8588867,
        "name": "SYDNEYWIDE PIPE CLEANING",
        "postcode": 2765,
        "state": "NSW",
        "suburb": "RIVERSTONE"
    },
    {
        "address": "26 HINKLER AVENUE",
        "latitude": -32.7125905999999,
        "longitude": 151.5084488,
        "name": "ENVIRONMENTAL TREATMENT SOLUTIONS",
        "postcode": 2320,
        "state": "NSW",
        "suburb": "RUTHERFORD"
    },
    {
        "address": "96 WISEMANS FERRY ROAD",
        "latitude": -33.417787,
        "longitude": 151.288758,
        "name": "EARTHCARE RECYCLERS",
        "postcode": 2250,
        "state": "NSW",
        "suburb": "SOMERSBY"
    },
    {
        "address": "245 PRINCES HIGHWAY",
        "latitude": -34.9249417,
        "longitude": 150.6027013,
        "name": "SOUTH COAST CONCRETE CRUSHING & RECYCLING",
        "postcode": 2540,
        "state": "NSW",
        "suburb": "NOWRA HILL"
    },
    {
        "address": "396 PRINCES HIGHWAY",
        "latitude": -33.9171537999999,
        "longitude": 151.1725011,
        "name": "METROPOLITAN DEMOLITIONS & RECYCLING",
        "postcode": 2044,
        "state": "NSW",
        "suburb": "ST PETERS"
    },
    {
        "address": "43 BAY ROAD",
        "latitude": -34.0224585,
        "longitude": 151.124587,
        "name": "VISY TAREN POINT",
        "postcode": 2229,
        "state": "NSW",
        "suburb": "TAREN POINT"
    },
    {
        "address": "34 WATERLOO AVENUE",
        "latitude": -32.7892340999999,
        "longitude": 151.6318453,
        "name": "THORNTON MRF",
        "postcode": 2322,
        "state": "NSW",
        "suburb": "THORNTON"
    },
    {
        "address": "6 KILLARNEY ROAD",
        "latitude": -35.3259087399999,
        "longitude": 148.1827375,
        "name": "GILMORE RECOVERY CENTRE",
        "postcode": 2720,
        "state": "NSW",
        "suburb": "GILMORE"
    },
    {
        "address": "3 PAPERBARK CLOSE",
        "latitude": -28.8584509999999,
        "longitude": 153.5215787,
        "name": "GO GROW",
        "postcode": 2478,
        "state": "NSW",
        "suburb": "WEST BALLINA"
    },
    {
        "address": "20 DAVIS ROAD",
        "latitude": -33.8370631,
        "longitude": 150.8964671,
        "name": "SUEZ SYDNEY BALING SERVICES",
        "postcode": 2164,
        "state": "NSW",
        "suburb": "WETHERILL PARK"
    },
    {
        "address": "1 MEMORIAL DRIVE",
        "latitude": -27.66339111,
        "longitude": 152.8125,
        "name": "NUGROW SWANBANK",
        "postcode": 4306,
        "state": "QLD",
        "suburb": "SWANBANK"
    },
    {
        "address": "15 PEACHEY ROAD",
        "latitude": -34.8454369999999,
        "longitude": 138.592529,
        "name": "FOAMEX SA",
        "postcode": 5094,
        "state": "SA",
        "suburb": "GEPPS CROSS"
    },
    {
        "address": "1 EUCALYPT DRIVE",
        "latitude": -37.846528,
        "longitude": 140.802916,
        "name": "MOUNT GAMBIER MRF",
        "postcode": 5290,
        "state": "SA",
        "suburb": "MOUNT GAMBIER"
    },
    {
        "address": "LOT 10 LAGOON RD",
        "latitude": -35.1068139999999,
        "longitude": 139.264455,
        "name": "T & R (MURRAY BRIDGE) PTY LTD",
        "postcode": 5253,
        "state": "SA",
        "suburb": "NORTHERN HEIGHTS"
    },
    {
        "address": "112 BAKEWELL DRIVE",
        "latitude": -35.20087733,
        "longitude": 138.4916117,
        "name": "IWS - SOUTHERN METRO",
        "postcode": 5169,
        "state": "SA",
        "suburb": "SEAFORD HEIGHTS"
    },
    {
        "address": "29 WILKINS ROAD",
        "latitude": -34.836914,
        "longitude": 138.535366,
        "name": "ADELAIDE PALLET RECYCLING",
        "postcode": 5013,
        "state": "SA",
        "suburb": "GILLMAN"
    },
    {
        "address": "68 CHARLES STREET",
        "latitude": -39.9202134999999,
        "longitude": 143.84749,
        "name": "CHARLES STREET TRANSFER STATION",
        "postcode": 7256,
        "state": "TAS",
        "suburb": "CURRIE"
    },
    {
        "address": "1680 GOULBURN VALLEY HIGHWAY",
        "latitude": -37.141183,
        "longitude": 145.461784,
        "name": "GOULBURN RIVER TROUT",
        "postcode": 3660,
        "state": "VIC",
        "suburb": "HIGHLANDS"
    },
    {
        "address": "55 MCARTHURS ROAD",
        "latitude": -37.8349919999999,
        "longitude": 144.8383135,
        "name": "ALTONA NORTH RECYCLING (MASALOVSKI GROUP)",
        "postcode": 3025,
        "state": "VIC",
        "suburb": "ALTONA NORTH"
    },
    {
        "address": "3 TANNERY LANE",
        "latitude": -37.573796,
        "longitude": 143.848181,
        "name": "BALLARAT CONCRETE RECYCLING",
        "postcode": 3350,
        "state": "VIC",
        "suburb": "REDAN"
    },
    {
        "address": "6 PROSPECT ROAD",
        "latitude": -36.743579,
        "longitude": 144.313602,
        "name": "HOPLEY DEMOLITION",
        "postcode": 3550,
        "state": "VIC",
        "suburb": "EAST BENDIGO"
    },
    {
        "address": "7 MILLS ROAD",
        "latitude": -37.9899902299999,
        "longitude": 145.1953125,
        "name": "PGM REFINERS RECYCLING FACILITY",
        "postcode": 3175,
        "state": "VIC",
        "suburb": "DANDENONG"
    },
    {
        "address": "3 VICTOR STREET",
        "latitude": -38.1088799999999,
        "longitude": 144.3443,
        "name": "SIMS METAL MANAGEMENT",
        "postcode": 3215,
        "state": "VIC",
        "suburb": "NORTH GEELONG"
    },
    {
        "address": "307 KOONWARRA-POUND CREEK ROAD",
        "latitude": -38.6053608,
        "longitude": 145.8120627,
        "name": "AUSSIE COMPOST COMPANY",
        "postcode": 3996,
        "state": "VIC",
        "suburb": "POUND CREEK"
    },
    {
        "address": "10 CARROLL ROAD",
        "latitude": -36.231646,
        "longitude": 145.26071,
        "name": "FOOTT WASTE & RECYCLING",
        "postcode": 3629,
        "state": "VIC",
        "suburb": "COOMBOONA"
    },
    {
        "address": "225 GRAHAMVALE ROAD",
        "latitude": -36.203582,
        "longitude": 145.253885,
        "name": "CROWBAR DEMOLITIONS",
        "postcode": 3629,
        "state": "VIC",
        "suburb": "UNDERA"
    },
    {
        "address": "980 TWO TREE ROAD",
        "latitude": -36.301519,
        "longitude": 144.552842,
        "name": "BIOMIX",
        "postcode": 3563,
        "state": "VIC",
        "suburb": "LOCKINGTON"
    },
    {
        "address": "7 CADBY COURT",
        "latitude": -38.162708,
        "longitude": 145.940597,
        "name": "GIPPSLAND METAL RECYCLERS",
        "postcode": 3820,
        "state": "VIC",
        "suburb": "WARRAGUL"
    },
    {
        "address": "11 ALBERT STREET",
        "latitude": -38.37387,
        "longitude": 142.45802,
        "name": "EWASTE RECYCLING",
        "postcode": 3280,
        "state": "VIC",
        "suburb": "WARRNAMBOOL"
    },
    {
        "address": "3 HAMMER COURT",
        "latitude": -37.5286599999999,
        "longitude": 143.847068,
        "name": "KKC RECYCLING",
        "postcode": 3355,
        "state": "VIC",
        "suburb": "WENDOUREE"
    },
    {
        "address": "11 PINE GROVE",
        "latitude": -38.621855,
        "longitude": 145.586237,
        "name": "BASS COAST RUBBISH REMOVAL & BIN HIRE",
        "postcode": 3995,
        "state": "VIC",
        "suburb": "WONTHAGGI"
    },
    {
        "address": "37 MAXWELL STREET",
        "latitude": -35.0104299999999,
        "longitude": 117.86391,
        "name": "CLEANAWAY ALBANY",
        "postcode": 6330,
        "state": "WA",
        "suburb": "MOUNT MELVILLE"
    },
    {
        "address": "17 BAILLIEU COURT",
        "latitude": -35.21724212,
        "longitude": 149.1430461,
        "name": "EZY SCRAP SERVICES",
        "postcode": 2911,
        "state": "ACT",
        "suburb": "MITCHELL"
    },
    {
        "address": "25 SHEPPARD STREET",
        "latitude": -35.3870937,
        "longitude": 149.1726519,
        "name": "WASTE AWAY",
        "postcode": 2620,
        "state": "ACT",
        "suburb": "HUME"
    },
    {
        "address": "29 YALLOURN STREET",
        "latitude": -35.33179569,
        "longitude": 149.1727434,
        "name": "ACT RECYCLING",
        "postcode": 2609,
        "state": "ACT",
        "suburb": "FYSHWICK"
    },
    {
        "address": "39 WHYALLA STREET",
        "latitude": -35.3332810599999,
        "longitude": 149.1743828,
        "name": "WV TECHNOLOGIES",
        "postcode": 2609,
        "state": "ACT",
        "suburb": "FYSHWICK"
    },
    {
        "address": "1 GEELONG STREET",
        "latitude": -35.33259413,
        "longitude": 149.1669344,
        "name": "GOTERRA",
        "postcode": 2609,
        "state": "ACT",
        "suburb": "FYSHWICK"
    },
    {
        "address": "1 DAIRY ROAD",
        "latitude": -35.3213120199999,
        "longitude": 149.1657028,
        "name": "SHRED-X ACT",
        "postcode": 2609,
        "state": "ACT",
        "suburb": "FYSHWICK"
    },
    {
        "address": "1 DAIRY ROAD",
        "latitude": -35.3213120199999,
        "longitude": 149.1657028,
        "name": "SHRED-X ACT",
        "postcode": 2609,
        "state": "ACT",
        "suburb": "FYSHWICK"
    },
    {
        "address": "100 UNDERWOOD STREET",
        "latitude": -35.34358044,
        "longitude": 149.2052169,
        "name": "GRI",
        "postcode": 2600,
        "state": "ACT",
        "suburb": "JERRABOMBERRA"
    },
    {
        "address": "15 LITHGOW STREET",
        "latitude": -35.3292360799999,
        "longitude": 149.1676918,
        "name": "ACCESS RECYCLING",
        "postcode": 2609,
        "state": "ACT",
        "suburb": "FYSHWICK"
    },
    {
        "address": "31 SAWMILL CIRCUIT",
        "latitude": -35.3991827299999,
        "longitude": 149.1621141,
        "name": "JJ'S HUME",
        "postcode": 2620,
        "state": "ACT",
        "suburb": "HUME"
    },
    {
        "address": "5 JOHN CORY ROAD",
        "latitude": -35.3955527699999,
        "longitude": 149.1532388,
        "name": "SOFT LANDINGS",
        "postcode": 2620,
        "state": "ACT",
        "suburb": "HUME"
    },
    {
        "address": "26 CESSNOCK STREET",
        "latitude": -35.31984447,
        "longitude": 149.1706242,
        "name": "JOHN MARTIN",
        "postcode": 2609,
        "state": "ACT",
        "suburb": "FYSHWICK"
    },
    {
        "address": "11 JOHN CORY ROAD",
        "latitude": -35.39570925,
        "longitude": 149.1526854,
        "name": "ACT SKIP HIRE RESOURCE RECOVERY & RECYCLING",
        "postcode": 2620,
        "state": "ACT",
        "suburb": "HUME"
    },
    {
        "address": "17 SUSTAINABILITY STREET",
        "latitude": -35.20902566,
        "longitude": 148.9797063,
        "name": "TRACTION TYRE DISPOSAL & RECYCLING",
        "postcode": 2615,
        "state": "ACT",
        "suburb": "MACNAMARA"
    },
    {
        "address": "173 PARKWOOD ROAD",
        "latitude": -35.21560527,
        "longitude": 148.9891488,
        "name": "CANBERRA SAND AND GRAVEL",
        "postcode": 2615,
        "state": "ACT",
        "suburb": "MACNAMARA"
    },
    {
        "address": "85 MORISSET ROAD",
        "latitude": -35.2220096199999,
        "longitude": 149.1522611,
        "name": "WEILWUN",
        "postcode": 2912,
        "state": "ACT",
        "suburb": "GUNGAHLIN"
    },
    {
        "address": "21 UNION ROAD",
        "latitude": -33.85679491,
        "longitude": 151.0268347,
        "name": "PLASTIC FORESTS PTY LTD",
        "postcode": 2144,
        "state": "NSW",
        "suburb": "AUBURN"
    },
    {
        "address": "21 UNION ROAD",
        "latitude": -33.85679491,
        "longitude": 151.0268347,
        "name": "PLASTIC FORESTS PTY LTD",
        "postcode": 2144,
        "state": "NSW",
        "suburb": "AUBURN"
    },
    {
        "address": "79 MARSHALLS LANE",
        "latitude": -33.5187298499999,
        "longitude": 149.2546045,
        "name": "ENVIRONMENTAL TREATMENT SOLUTIONS",
        "postcode": 2799,
        "state": "NSW",
        "suburb": "BLAYNEY"
    },
    {
        "address": "573 BRAYTON ROAD",
        "latitude": -34.6715429299999,
        "longitude": 149.9745173,
        "name": "GUNLAKE QUARRIES",
        "postcode": 2579,
        "state": "NSW",
        "suburb": "BRAYTON"
    },
    {
        "address": "31 CAPTAIN COOK DRIVE",
        "latitude": -34.03262124,
        "longitude": 151.1276194,
        "name": "INFRABUILD RECYCLING",
        "postcode": 2229,
        "state": "NSW",
        "suburb": "CARINGBAH"
    },
    {
        "address": "27 HETHERINGTON STREET",
        "latitude": -34.75157022,
        "longitude": 149.7414059,
        "name": "ROCKY HILL SAND & SOIL",
        "postcode": 2580,
        "state": "NSW",
        "suburb": "GOULBURN"
    },
    {
        "address": "7 BOSCI ROAD",
        "latitude": -33.99974852,
        "longitude": 150.8541048,
        "name": "SELL & PARKER PTY LTD",
        "postcode": 2565,
        "state": "NSW",
        "suburb": "INGLEBURN"
    },
    {
        "address": "902 PACIFIC HIGHWAY",
        "latitude": -33.3841371899999,
        "longitude": 151.3655178,
        "name": "INFRABUILD RECYCLING",
        "postcode": 2250,
        "state": "NSW",
        "suburb": "LISAROW"
    },